Name,Address,Product,Draw,Value,Postal_Code,Latitude,Longitude
MAC'S CONVENIENCE STORES,7887 TECUMSEH RD E N8T-1G3 WINDSOR,Lotto Max,06-Jun-2023,35000000.0,N8T-1G3,42.313731,-82.932204
SHELL,4685 CENTRAL PKY E L4Z-2E4 MISSISSAUGA,Lotto 649,01-Mar-2023,5000000.0,L4Z-2E4,43.6165,-79.641336
SHOP RITE CONVENIENCE,5051 BASELINE RD L0E-1R0 SUTTON WEST,Lotto 649,17-May-2023,5000000.0,L0E-1R0,44.301238,-79.370775
SOBEYS #678 - CAMBRIDGE,130 CEDAR ST N1S-1W4 CAMBRIDGE,Lotto 649,01-Feb-2023,5000000.0,N1S-1W4,43.352634,-80.328386
ESSO GAS STATION,1645 NORTH SERVICE RD L2A-6T8 FORT ERIE,Ontario 49,01-Mar-2023,2000000.0,L2A-6T8,42.9206366,-78.9671472
AVONDALE FITCH/WELLAND,256 FITCH ST L3C-4W5 WELLAND,Lotto 649,11-Mar-2023,1666666.7,L3C-4W5,42.994697,-79.270271
CNC VARIETY & GAS STATION,195 WATERLOO ST N3A-1S4 NEW HAMBURG,Lotto 649,11-Mar-2023,1666666.7,N3A-1S4,43.382435,-80.713769
B & J VARIETY,209 GRAHAM ST N0L-2P0 WEST LORNE,Encore - Ontario 49,11-Mar-2023,1000000.0,N0L-2P0,42.603012,-81.60515
BECKER'S 80416A,7164 AIRPORT RD L4T-2H2 MISSISSAUGA,Encore - Lotto Max,17-Mar-2023,1000000.0,L4T-2H2,43.706848,-79.647288
CANADIAN TIRE GAS BAR MIDLAND,9315 HWY 93 L4R-4K4 MIDLAND,Lotto 649,03-Jun-2023,1000000.0,L4R-4K4,44.740107,-79.912902
CIRCLE K # 1763,682824 ROAD 68 N0M-2M0 THAMESFORD,Lotto 649,29-Mar-2023,1000000.0,N0M-2M0,43.055496,-81.006378
CIRCLE K #1734,2660 MAJOR MACKENZIE DR L6A-1C1 MAPLE,Lotto 649,05-Jul-2023,1000000.0,L6A-1C1,43.852304,-79.526775
EGANVILLE FOODLAND,8754 HWY 60 K0J-1T0 EGANVILLE,Lotto Max,19-May-2023,1000000.0,K0J-1T0,45.554451,-77.111455
ESSO,1000 ONTARIO RD L3B-5E4 WELLAND,Lotto Max,06-Jun-2023,1000000.0,L3B-5E4,42.974416,-79.235789
ESSO/CIRCLE K #52477,1500 FINCH AVE E M2J-4Y6 NORTH YORK,Lotto 649,25-Mar-2023,1000000.0,M2J-4Y6,43.793138,-79.354514
ESSO/CIRCLE K #52528,5008 HURONTARIO ST L5R-1B2 MISSISSAUGA,Lotto Max,26-May-2023,1000000.0,L5R-1B2,43.606682,-79.653705
ESSO/CIRCLE K #52732,7001 WOODBINE AVE L3R-1A3 MARKHAM,Lotto 649,13-May-2023,1000000.0,L3R-1A3,43.814524,-79.348235
FUSION SUPERMARKET,1150 MORNINGSIDE AVE M1B-3A4 SCARBOROUGH,Encore - Daily Grand,19-Jun-2023,1000000.0,M1B-3A4,43.800514,-79.200564
LUCKY 8 LOTTERY,4300 STEELES AVE E L3R-0Y5 MARKHAM,Encore - Lotto Max,19-May-2023,1000000.0,L3R-0Y5,43.826189,-79.306286
METRO #140- SOUTH GEORGETOWN,367 MOUNTAINVIEW RD S L7G-5X3 GEORGETOWN,Lotto 649,28-Jun-2023,1000000.0,L7G-5X3,43.632364,-79.877133
METRO #453- BOWMANVILLE MALL,243 KING ST E L1C-3X1 BOWMANVILLE,Lotto Max,31-Mar-2023,1000000.0,L1C-3X1,43.911208,-78.672865
MR. GAS,400 DANIEL ST S K7S-3G9 ARNPRIOR,Lotto 649,11-Mar-2023,1000000.0,K7S-3G9,45.423192,-76.36876
PIONEER BRADSHAW PARRY SOUND,80 BOWES ST P2A-2L7 PARRY SOUND,Encore - 649,12-Apr-2023,1000000.0,P2A-2L7,45.343217,-80.016248
PRO ONE STOP,208 NORTH ST K0K-3E0 STIRLING,Lotto Max,23-May-2023,1000000.0,K0K-3E0,44.301452,-77.550779
REXALL #109 - KINGSTON SQUARE,4459 KINGSTON RD M1E-2N7 SCARBOROUGH,Encore - 649,08-Apr-2023,1000000.0,M1E-2N7,43.768628,-79.187363
SDM #653 - FOUR CORNERS PLAZA,2015 LONG LAKE RD P3E-4M8 SUDBURY,Encore - 649,25-Mar-2023,1000000.0,P3E-4M8,46.451135,-81.004853
SDM #948 - LINDSAY,74 KENT ST W K9V-2Y4 LINDSAY,Encore - Lotto Max,31-Mar-2023,1000000.0,K9V-2Y4,44.355207,-78.737462
SHELL GAS STATION,6985 HURONTARIO ST L5T-2Z6 MISSISSAUGA,Encore - 649,01-Apr-2023,1000000.0,L5T-2Z6,43.646441,-79.705061
WOODBINE LOTTO CENTRE,500 REXDALE BLVD M9W-6K5 ETOBICOKE,Lotto 649,01-Mar-2023,1000000.0,M9W-6K5,43.720386,-79.600071
ZEHRS #573 - ST CLAIR BEACH,400 MANNING RD N8N-4Z4 TECUMSEH,Lotto 649,08-Feb-2023,1000000.0,N8N-4Z4,42.314681,-82.866686
ZEHRS #576 - SOUTH CAMBRIDGE,200 FRANKLIN BLVD N1R-8N8 CAMBRIDGE,Lotto 649,22-Feb-2023,1000000.0,N1R-8N8,43.357432,-80.288152
SDM #1452,18293 YONGE ST L9N-0A2 EAST GWILLIMBUR,Lottario,04-Mar-2023,956081.1,L9N-0A2,44.074798,-79.482721
SHELL,116 BOWES ST P2A-2L7 PARRY SOUND,Lightning Lotto,13-Feb-2023,859653.8,P2A-2L7,45.344684,-80.009864
STEVEN'S YOUR INDEPENDENT GROCER,270 WELLINGTON ST P1L-1B9 BRACEBRIDGE,Lottario,22-Apr-2023,654526.1,P1L-1B9,45.042181,-79.324271
MUNCHIES GIFT & VARIETY,850 KING ST W L1J-2L5 OSHAWA,Lottario,20-May-2023,649377.6,L1J-2L5,43.891483,-78.895245
ESSO/CIRCLE K #52558,7018 ISLINGTON AVE L4L-1V8 WOODBRIDGE,Lottario,01-Jul-2023,644486.9,L4L-1V8,43.764521,-79.576008
ESSO/CIRLCE K #52401,9999 BAYVIEW AVE L4C-8W7 RICHMOND HILL,Lottario,10-Jun-2023,634504.6,L4C-8W7,43.875826,-79.41472
HOFFMAN MINI MART,124 HOFFMAN ST N2M-3N1 KITCHENER,Lightning Lotto,28-Apr-2023,575305.9,N2M-3N1,43.431634,-80.484603
RIVER OAKS CONVENIENCE STORE,201 RIVER OAKS BLVD W L6H-3S7 OAKVILLE,Lightning Lotto,16-Jun-2023,574471.8,L6H-3S7,43.464579,-79.722553
CIRCLE K #1002,258 PARK RD S L1J-4H3 OSHAWA,Daily Grand,15-Jun-2023,500000.0,L1J-4H3,43.888587,-78.871011
FOODY MART,355 BAMBURGH CIR M1W-3Y1 SCARBOROUGH,THE BIG SPIN,31-3108,500000.0,M1W-3Y1,43.814803,-79.322407
PETRO CANADA,1514 STEELES AVE W L4K-2P7 CONCORD,Daily Grand,20-Mar-2023,500000.0,L4K-2P7,43.787619,-79.470804
QUICK PICK VARIETY,37 JOHN ST P2B-1Y2 STURGEON FALLS,Lotto Max,06-Jun-2023,500000.0,P2B-1Y2,46.369585,-79.930573
R & P CONVENIENCE,90 SIMCOE ST N4G-2H8 TILLSONBURG,Lotto Max,25-Jul-2023,500000.0,N4G-2H8,42.859449,-80.712273
TOMS FOOD STORE,100 NONQUON RD L1G-3S4 OSHAWA,Lotto Max,25-Jul-2023,500000.0,L1G-3S4,43.929278,-78.874575
VARIETY PLUS,2943 MAJOR MACKENZIE DR L6A-3N9 MAPLE,Lottario,04-Feb-2023,469028.9,L6A-3N9,43.84985199,-79.53518118
PARK RETAIL,2495 KINGSTON RD M1N-1V4 SCARBOROUGH,Lottario,18-Mar-2023,404961.8,M1N-1V4,43.710377,-79.248229
PETRO CANADA,2371 25 SIDEROAD L9S-2G3 INNISFIL,Lottario,01-Apr-2023,382900.2,L9S-2G3,44.328141,-79.542987
LONGO'S #19 - AURORA,650 WELLINGTON ST E L4G-0K3 AURORA,Lotto Max,02-Jun-2023,342257.1,L4G-0K3,44.005791,-79.446298
PIONEER SNACK EXPRESS,1 HARWOOD AVE S L1S-2C1 AJAX,Lightning Lotto,13-Mar-2023,331192.1,L1S-2C1,43.860977,-79.024837
KITCHEN BASKET CONVENIENCE,2822 MARKHAM RD M1X-1E6 SCARBOROUGH,PAY DAY,31-2371,300000.0,M1X-1E6,43.822962,-79.248503
LOBLAWS #1035 - BARRHAVEN,3201 GREENBANK RD K2J-4H9 NEPEAN,Lotto 649,11-Mar-2023,257082.0,K2J-4H9,45.268034,-75.743447
BIG BEAR FOOD MART,450 APPLEBY LINE L7L-2Y2 BURLINGTON,BONUS MONEY,31-2355,250000.0,L7L-2Y2,43.367329,-79.75487
BRYAN'S VARIETY,158 MILL ST N0L-1M0 GLENCOE,BONUS MONEY,31-2355,250000.0,N0L-1M0,42.749599,-81.713749
CAYUGA IDA PHARMACY,18 TALBOT ST E N0A-1E0 CAYUGA,CROSS DELUXE,31-3351,250000.0,N0A-1E0,42.951356,-79.853917
CIRCLE K #62020 - CHRISTOPHER,115 CHRISTOPHER DR N1R-4S1 CAMBRIDGE,GOLDEN JP,31-2333,250000.0,N1R-4S1,43.347301,-80.29866
COMPLETE MART,1200 YORK MILLS RD M3A-1X8 NORTH YORK,THE BIG SPIN,31-3108,250000.0,M3A-1X8,43.75962,-79.335035
DAIRY MART,2987 LAKE SHORE BLVD W M8V-1J8 ETOBICOKE,CROSS DELUXE,31-3351,250000.0,M8V-1J8,43.6001408,-79.5070686
HASTY MARKET,11 WESTWOOD DR N2M-2K5 KITCHENER,BINGO MULTIP,31-3080,250000.0,N2M-2K5,43.446098,-80.523538
KOBE'S CONVENIENCE,707 KENNEDY RD M1K-2C1 SCARBOROUGH,POKER NIGHT,31-2341,250000.0,M1K-2C1,43.727873,-79.265692
LITTLE SHORT STOP STORE #1110,3014 KING ST E N2A-1B3 KITCHENER,POKER NIGHT,31-2341,250000.0,N2A-1B3,43.428765,-80.431527
LUCKY TICKETS,1226 ISLINGTON AVE M8X-1Y8 ETOBICOKE,Lottario,29-Apr-2023,250000.0,M8X-1Y8,43.6452266,-79.5240453
PETRO CANADA,1755 ALBION RD M9V-1C3 ETOBICOKE,CROSS DELUXE,31-3351,250000.0,M9V-1C3,43.743726,-79.606721
PORT COLBORNE SOBEYS #4735,287 WEST SIDE RD L3K-5L2 PORT COLBORNE,BONUS MONEY,31-2355,250000.0,L3K-5L2,42.904187,-79.265884
QQ+ CONVENIENCE,1395 DAVENPORT RD M6H-2H6 TORONTO,CASH IN,31-2367,250000.0,M6H-2H6,43.6727309,-79.4411788
ROCKWOOD LOTTO CENTRE,4141 DIXIE RD L4W-1V5 MISSISSAUGA,BINGO MULTIP,31-3080,250000.0,L4W-1V5,43.62564,-79.604682
SANDHURST SUPER MARKET,1001 SANDHURST CIR M1V-1Z6 SCARBOROUGH,GOLDEN JP,31-2333,250000.0,M1V-1Z6,43.809274,-79.263704
TANNER'S YOUR INDEPENDENT GROCER,745 CENTER ST P5E-1S8 ESPANOLA,POKER NIGHT,31-2341,250000.0,P5E-1S8,46.246847,-81.759473
THICKSON CONVENIENCE,80 THICKSON RD S L1N-7T2 WHITBY,CROSS DELUXE,31-3351,250000.0,L1N-7T2,43.891714,-78.915587
SCOTT'S STORE,5 LAKE ST K0K-2T0 PICTON,Lotto Max,11-Jul-2023,243397.3,K0K-2T0,44.00312059,-77.15093763
PIONEER SNACK EXPRESS,919 UPPER PARADISE RD L9B-2M9 HAMILTON,Lotto Max,19-May-2023,232634.8,L9B-2M9,43.21768,-79.91822
MISTER CONVENIENCE,608 ORPINGTON RD K9J-4A4 PETERBOROUGH,Lotto Max,30-Jun-2023,212849.2,K9J-4A4,44.277774,-78.326217
CMN SUPERMARKET,2189 WESTON RD M9N-1X9 YORK,PLINKO,31-2280,200000.0,M9N-1X9,43.703469,-79.526067
KITCHEN FOOD FAIR #284,284 QUEEN ST E L6V-1C2 BRAMPTON,Lightning Lotto,07-Jul-2023,195340.5,L6V-1C2,43.699658,-79.74635
PETRO CANADA,900 PROGRESS AVE M1H-2Z9 SCARBOROUGH,Poker Lotto All In,08-Feb-2023,177330.0,M1H-2Z9,43.782143,-79.234824
ACTON SHELL & CONVENIENCE,318 QUEEN ST L7J-1R2 ACTON,Poker Lotto All In,19-Apr-2023,175327.2,L7J-1R2,43.63587,-80.029023
SEO MINI MART,867 EXMOUTH ST N7T-5R3 SARNIA,Lotto Max,07-Apr-2023,173957.5,N7T-5R3,42.984667,-82.378166
NEW DAY CONVENIENCE,223 CEREMONIAL DR L5R-2N3 MISSISSAUGA,Lotto 649,08-Apr-2023,166437.5,L5R-2N3,43.605064,-79.663331
MICS KWIK-WAY,225 CAUSLEY ST P0R-1B0 BLIND RIVER,Lotto Max,14-Feb-2023,165951.4,P0R-1B0,46.181952,-82.94178
STARSKY FINE FOODS INC.,3115 DUNDAS ST W L5L-3R8 MISSISSAUGA,Lotto 649,21-Jun-2023,165105.4,L5L-3R8,43.521172,-79.685912
THE DOLLAR STORE PLUS,500 MAYFAIR AVE L1G-2Y2 OSHAWA,Lightning Lotto,23-Jun-2023,164943.0,L1G-2Y2,43.921296,-78.8557053
CLOVERLEAF GROCERY,5970 HWY 11-71 P0W-1E0 EMO,Lotto 649,05-Apr-2023,160802.3,P0W-1E0,48.632704,-93.834055
ONE STOP CONVENIENCE,1194 KING ST E N3H-3P6 CAMBRIDGE,Poker Lotto All In,22-Mar-2023,156448.8,N3H-3P6,43.392015,-80.35152
THE SECOND ROOF AND LEAF,7309 WOODBINE AVE L3R-3V7 MARKHAM,Lotto 649,15-Apr-2023,154191.7,L3R-3V7,43.821577,-79.349631
CIRCLE K #1264 - SIXTH LINE,2530 SIXTH LINE L6H-6W5 OAKVILLE,Lotto 649,10-Jun-2023,139752.1,L6H-6W5,43.476371,-79.726608
GATEWAY NEWSTANDS,370 ST. CLAIR AVE W M5P-1N4 TORONTO,Lotto 649,10-Jun-2023,139752.1,M5P-1N4,43.684209,-79.415408
SUPER STAR CONVENIENCE STORE,2950 BIRCHMOUNT RD M1W-3G5 SCARBOROUGH,Poker Lotto All In,03-May-2023,137584.5,M1W-3G5,43.799761,-79.306996
INS MARKET,4025 YONGE ST M2P-2E3 NORTH YORK,Instant Top Up,03-Apr-2023,133916.6,M2P-2E3,43.744829,-79.405615
MAC'S WYANDOTTE E,7945 WYANDOTTE ST E N8S-1T1 WINDSOR,Lotto 649,05-Jul-2023,132358.2,N8S-1T1,42.333131,-82.942956
LOTTO ONE,539 GOVERNMENT ST P8N-2P6 DRYDEN,Lotto 649,17-May-2023,119170.3,P8N-2P6,49.786925,-92.821048
KESWICK VARIETY STORE,532 THE QUEENSWAY  S L4P-2E6 KESWICK,Lotto 649,06-May-2023,109927.5,L4P-2E6,44.208237,-79.467561
THE THOMASBURG STORE,4822 HIGHWAY 37 K0K-3H0 THOMASBURG,Lotto 649,06-May-2023,109927.5,K0K-3H0,44.3929341,-77.3452299
ESSO/CIRCLE K #52290,5571 YONGE ST M2N-5S4 NORTH YORK,Poker Lotto All In,28-Jun-2023,109468.6,M2N-5S4,43.778996,-79.414963
ESSO/CIRCLE K# 52614,780 BANCROFT DR L5V-2Y6 MISSISSAUGA,Lotto 649,04-Feb-2023,106700.0,L5V-2Y6,43.61624,-79.702269
ZEL,11 CUNDLES RD W L4N-1R2 BARRIE,Lotto 649,04-Feb-2023,106700.0,L4N-1R2,44.404393,-79.704511
BIG BAY POINT VARIETY,649 YONGE ST L4N-4E7 BARRIE,Lotto 649,15-Mar-2023,106665.4,L4N-4E7,44.356346,-79.644526
GIANT TIGER #202 GUELPH,183 SILVERCREEK PKY N N1H-3T2 GUELPH,Lotto 649,15-Mar-2023,106665.4,N1H-3T2,43.541533,-80.280023
BIG BEAR FOOD MART,1401 RIVER RD E N2A-3X9 KITCHENER,Lotto 649,24-Jun-2023,101801.8,N2A-3X9,43.433646,-80.427868
7-ELEVEN ERIE,327 ERIE ST N5A-2N1 STRATFORD,Encore - Ontario 49,22-Jul-2023,100000.0,N5A-2N1,43.364018,-80.988519
7-ELEVEN TECUMSEH,5124 TECUMSEH RD E N8T-1C1 WINDSOR,CROSSTRIPLER,31-3301,100000.0,N8T-1C1,42.308517,-82.963829
ASPENDOS ENERGY INC. (PETRO CANADA),8155 TORBRAM RD L6T-5C5 BRAMPTON,Encore - Daily Grand,20-Apr-2023,100000.0,L6T-5C5,43.717772,-79.683616
AVONDALE CUSHMAN,198 CUSHMAN RD L2M-6T3 ST CATHARINES,Encore - Ontario 49,25-Feb-2023,100000.0,L2M-6T3,43.18154,-79.199534
AVONDALE FIRST,456 FIRST AVE L3C-6A7 WELLAND,Encore - Ontario 49,29-Mar-2023,100000.0,L3C-6A7,43.013294,-79.259624
BAYRIDGES MARKET,713 KROSNO BLVD L1W-1G4 PICKERING,CROSSTRIPLER,31-3301,100000.0,L1W-1G4,43.821443,-79.083039
BEAUTY BARGAIN & VARIETY STORE,2763 DANFORTH AVE M4C-1L8 TORONTO,Encore - Lottario,18-Mar-2023,100000.0,M4C-1L8,43.688955,-79.297135
BEST CONVENIENCE,1410 QUEEN ST W M6K-1L9 TORONTO,CROSSTRIPLER,31-3301,100000.0,M6K-1L9,43.641164,-79.434631
BIG BONUS CONVENIENCE AND FOOD MART,78 QUEENSTON RD L8K-6R6 HAMILTON,Encore - Daily Grand,13-Feb-2023,100000.0,L8K-6R6,43.235956,-79.800155
BYRON MINI MART,1290 BASE LINE ROAD BYRO N6K-2E3 LONDON,SUIT UP,31-2356,100000.0,N6K-2E3,42.96380719,-81.27949388
CANADIAN TIRE GAS BAR #1033,2207 RIVERSIDE DR P4R-0A1 TIMMINS,Encore - Ontario 49,03-Jun-2023,100000.0,P4R-0A1,48.472013,-81.405377
CIRCLE K #1315 - ISLINGTON,9600 ISLINGTON AVE L4H-2T1 WOODBRIDGE,BINGO DBLR,31-2315,100000.0,L4H-2T1,43.825135,-79.609499
CIRCLE K #1437,915 RED RIVER RD P7B-1K5 THUNDER BAY,Encore - Lottario,01-Apr-2023,100000.0,P7B-1K5,48.447759,-89.250138
CIRCLE K #1734,2660 MAJOR MACKENZIE DR L6A-1C1 MAPLE,Encore - 649,01-Feb-2023,100000.0,L6A-1C1,43.852304,-79.526775
CIRCLE K #65049 - ALLISTON,33 YOUNG ST L9R-1B5 ALLISTON,Encore - Lotto Max,30-May-2023,100000.0,L9R-1B5,44.148504,-79.879343
CIRCLE K #65061 - SAUBLE BEACH,329 MAIN ST N0H-2G0 SAUBLE BEACH,Encore - 649,01-Mar-2023,100000.0,N0H-2G0,44.630067,-81.265528
CIRCLE K #65072,108 DAWSON RD L9W-2W6 ORANGEVILLE,Encore - 649,08-Feb-2023,100000.0,L9W-2W6,43.908714,-80.0969
CIRCLE K #66 - PARRY SOUND,95 CHURCH ST P2A-1Z4 PARRY SOUND,Poker Lotto,20-Mar-2023,100000.0,P2A-1Z4,45.3544,-80.035669
CNIB WM - ST. THOMAS,1063 TALBOT ST N5P-1G4 ST THOMAS,Encore - Lotto Max,30-Jun-2023,100000.0,N5P-1G4,42.780769,-81.172014
CONVENIENCE K,75 HANNA AVE M6K-3N7 TORONTO,Encore - Lotto Max,09-Jun-2023,100000.0,M6K-3N7,43.63996,-79.418983
CORNER STORE #10,3689 SANDWICH ST N9C-1B8 WINDSOR,Encore - 649,05-Apr-2023,100000.0,N9C-1B8,42.291608,-83.081724
CRANSTON CONVENIENCE STORE,20 CRANSTON PARK AVE L6A-2W2 MAPLE,Encore - Lotto Max,14-Jul-2023,100000.0,L6A-2W2,43.858451,-79.524514
D & J MART,364 GERRARD ST E M5A-2G8 TORONTO,PAYLN MULTPR,31-2349,100000.0,M5A-2G8,43.662798,-79.36393
DAILY MART,1656 NASH RD L1E-2Y4 COURTICE,PAYLN MULTPR,31-2349,100000.0,L1E-2Y4,43.914775,-78.788927
DAISY MART # 82070,500 GLEN FORREST BLVD N2L-5G4 WATERLOO,Encore - 649,10-May-2023,100000.0,N2L-5G4,43.484671,-80.550454
DELICIOUS GREEK CONVENIENCE,800 KING ST W L1J-2L5 OSHAWA,Encore - Ontario 49,04-Mar-2023,100000.0,L1J-2L5,43.891209,-78.893927
ERIN EXPRESS VARIETY & VIDEO,9 MAIN ST N0B-1T0 ERIN,CROSSTRIPLER,31-3301,100000.0,N0B-1T0,43.766784,-80.05828
ESSO,1230 PLAINS RD E L7S-1W6 BURLINGTON,PAYLN MULTPR,31-2349,100000.0,L7S-1W6,43.331627,-79.822253
ESSO,2934 HIGHWAY 35 K9V-4R4 LINDSAY,Encore - Lotto Max,03-Mar-2023,100000.0,K9V-4R4,44.323848,-78.719847
ESSO ON THE RUN,2201 MCCOWAN RD M1S-4G6 SCARBOROUGH,PAYLN MULTPR,31-2349,100000.0,M1S-4G6,43.798985,-79.262212
ESSO/CIRCLE K# 52268,6788 REGIONAL ROAD 25 L9T-9G7 MILTON,Poker Lotto,09-Mar-2023,100000.0,L9T-9G7,43.505795,-79.861328
FISHER'S  YIG,30B BEAVER AVE L0K-1A0 BEAVERTON,Encore - Lotto Max,05-May-2023,100000.0,L0K-1A0,44.4282283,-79.12468932
FOOD BASICS #629 - YORK MILLS,1277 YORK MILLS RD M3A-1Z5 NORTH YORK,Poker Lotto,14-May-2023,100000.0,M3A-1Z5,43.760444,-79.32504
FOOD BASICS #643 - NEW LISKEARD,11B HWY P0J-1P0 NEW LISKEARD,Encore - Pick 3,19-Jun-2023,100000.0,P0J-1P0,47.53029833,-79.67502404
FOREST GLEN DELI & APPETIZER,3409 FIELDGATE DR L4X-2J4 MISSISSAUGA,Encore - Lotto Max,16-May-2023,100000.0,L4X-2J4,43.624264,-79.587988
GATEWAY NEWSTANDS,9350 YONGE ST L4C-5G2 RICHMOND HILL,BINGO DBLR,31-2315,100000.0,L4C-5G2,43.854836,-79.436561
GATEWAY NEWSTANDS,9350 YONGE ST L4C-5G2 RICHMOND HILL,Poker Lotto,28-May-2023,100000.0,L4C-5G2,43.854836,-79.436561
GATEWAY NEWSTANDS #302,1530 ALBION RD M9V-1B4 ETOBICOKE,CROSSTRIPLER,31-3301,100000.0,M9V-1B4,43.74168,-79.5844
GEORGE'S CONVENIENCE,12612 HIGHWAY 50 L7E-1T6 BOLTON,100KMONYMTCH,31-2358,100000.0,L7E-1T6,43.859935,-79.712834
GEORGE'S CONVENIENCE,9445 MISSISSAUGA RD L6X-0Z8 BRAMPTON,100KMONYMTCH,31-2358,100000.0,L6X-0Z8,43.65614,-79.813885
GIANT TIGER #216 FERGUS,900 TOWER ST S N1M-3N7 FERGUS,Encore - Lotto Max,07-Apr-2023,100000.0,N1M-3N7,43.696489,-80.364504
GOCO GAS STATION CONVENIENCE,7326 ARKONA RD N0M-1B0 ARKONA,Encore - 649,03-Jun-2023,100000.0,N0M-1B0,43.072648,-81.833834
GOOD LUCK VARIETY,241 DUNSDON ST N3R-7C3 BRANTFORD,Encore - Lotto Max,09-May-2023,100000.0,N3R-7C3,43.182854,-80.257657
GOODIES CONVENIENCE,107 KENNEDY RD S L6W-3G3 BRAMPTON,Encore - Lotto Max,31-Mar-2023,100000.0,L6W-3G3,43.68608,-79.737563
GORE GIFT & VARIETY,2031 LAKESHORE RD L7R-1A2 BURLINGTON,SUIT UP,31-2356,100000.0,L7R-1A2,43.325233,-79.795128
GRAND MINI MART & VIDEO,895 GRAND AVE W N7L-1C8 CHATHAM,Encore - Lotto Max,28-Apr-2023,100000.0,N7L-1C8,42.394529,-82.216247
GREEN SPOT CONVENIENCE,20 LEE CENTRE DR M1H-3H9 SCARBOROUGH,100KMONYMTCH,31-2358,100000.0,M1H-3H9,43.780802,-79.247476
HANMER KWIK WAY,7 COTE BLVD P3P-1X5 HANMER,Encore - Lotto Max,03-Feb-2023,100000.0,P3P-1X5,46.649783,-80.944111
INS MARKET #5140,2960 KINGSWAY DR N2C-1X1 KITCHENER,Encore - 649,12-Apr-2023,100000.0,N2C-1X1,43.424323,-80.438605
JASPREET KITCHEN FOOD FAIR,6986 FINANCIAL DR L5N-8J4 MISSISSAUGA,Encore - 649,17-Jun-2023,100000.0,L5N-8J4,43.610912,-79.750022
JOE'S VARIETY,592 NOTRE DAME ST N0R-1A0 BELLE RIVER,Encore - 649,24-Jun-2023,100000.0,N0R-1A0,42.293048,-82.710489
JUG CITY,3750 LAWRENCE AVE E M1G-1R1 SCARBOROUGH,Encore - Lotto Max,11-Jul-2023,100000.0,M1G-1R1,43.762778,-79.214999
KEN'S VARIETY,10 VANIER DR N7L-4P6 CHATHAM,Encore - Lotto Max,14-Jul-2023,100000.0,N7L-4P6,42.4179677,-82.1761181
KIRK'S GAS & CONVENIENCE,2440 518 HWY W P0A-1Y0 SPRUCEDALE,Encore - Lotto Max,02-Jun-2023,100000.0,P0A-1Y0,45.491176,-79.459569
KITCHEN FOOD FAIR CONVENIENCE,751 DON MILLS RD M3C-1S3 NORTH YORK,Encore - Lotto Max,31-Mar-2023,100000.0,M3C-1S3,43.714189,-79.335903
LOBLAWS #1179 - BROADVIEW,720 BROADVIEW AVE M4K-2P1 TORONTO,Encore - Lotto Max,31-Mar-2023,100000.0,M4K-2P1,43.675142,-79.358481
LONGO'S #12 - MAPLE,2810 MAJOR MACKENZIE DR L6A-1R8 MAPLE,PAYLN MULTPR,31-2349,100000.0,L6A-1R8,43.851758,-79.535261
LUCKY LOTTO VARIETY & BEAUTY SUPPLY,3105 KINGSTON RD M1M-1P1 SCARBOROUGH,Encore - 649,22-Feb-2023,100000.0,M1M-1P1,43.727067,-79.229529
M & D VARIETY,2700 KIPLING AVE M9V-4P2 ETOBICOKE,Encore - 649,05-Apr-2023,100000.0,M9V-4P2,43.75669,-79.58931
MAC'S MILDMAY,57 ELORA ST N0G-2J0 MILDMAY,Encore - Lotto Max,30-May-2023,100000.0,N0G-2J0,43.7425369,-81.2514862
MACEWEN CARLETON PLACE (21280),322 WILLIAM ST K7C-3S3 CARLETON PLACE,CROSSTRIPLER,31-3301,100000.0,K7C-3S3,45.14230063,-76.14797476
MACEWEN LUCAN (21018),33406 RICHMOND ST. N0M-2J0 LUCAN,Encore - 649,06-May-2023,100000.0,N0M-2J0,43.185532,-81.396887
MARG'S NORTHERN CONVENIENCE,210 O'BRIEN ST P0T-1C0 ATIKOKAN,Encore - 649,15-Feb-2023,100000.0,P0T-1C0,48.758079,-91.6221585
METRO #055- GUELPH,500 EDINBURGH ST N1G-4Z1 GUELPH,Encore - 649,01-Apr-2023,100000.0,N1G-4Z1,43.521511,-80.233453
MR. GAS,4042 INNES RD K1C-1T1 ORLEANS,Encore - 649,29-Mar-2023,100000.0,K1C-1T1,45.455199,-75.505145
OASIS CONVENIENCE,7297 HWY #26 L0M-1S0 STAYNER,Encore - Lottario,29-Apr-2023,100000.0,L0M-1S0,44.41815186,-80.10237885
OASIS GAS & VARIETY,1824 FOURTH LINE N0A-1M0 OHSWEKEN,POWER UP,31-2368,100000.0,N0A-1M0,43.068235,-80.117545
ON THE RUN ULTRAMAR GAS STATION,10 NORMAN JONES PL L4A-7X5 STOUFFVILLE,Encore - Lotto Max,30-Jun-2023,100000.0,L4A-7X5,43.974521,-79.282127
ORANGE MART,3603 HIGHWAY 7  E L3R-8W3 MARKHAM,WHEEL OF FORTUNE LOTTO,01-May-2023,100000.0,L3R-8W3,43.853251,-79.338063
ORCHARD GROVE PHARMACY,8123 LUNDY'S LANE L2H-1H3 NIAGARA FALLS,Encore - Lotto Max,30-May-2023,100000.0,L2H-1H3,43.089331,-79.133126
PAPELARIA PORTUGAL,220 OSSINGTON AVE M6J-2Z9 TORONTO,Encore - Lotto Max,18-Apr-2023,100000.0,M6J-2Z9,43.649128,-79.420978
PARK'S VARIETY,43 NORTH PARK ST N3R-4J7 BRANTFORD,SUIT UP,31-2356,100000.0,N3R-4J7,43.155495,-80.270908
PETRO CAN,3680 LANGSTAFF RD L4L-9A8 WOODBRIDGE,Lotto 649,25-Mar-2023,100000.0,L4L-9A8,43.808507,-79.551252
PETRO CANADA,1007 ST LAURENT BLVD K1K-3B1 OTTAWA,Encore - 649,15-Apr-2023,100000.0,K1K-3B1,45.428399,-75.639162
PETRO CANADA,1345 LAWRENCE AVE E M3A-1C6 NORTH YORK,Encore - 649,01-Mar-2023,100000.0,M3A-1C6,43.740672,-79.319656
PETRO CANADA,1487 CENTRE ST L4J-3M7 THORNHILL,Encore - 649,03-Jun-2023,100000.0,L4J-3M7,43.805324,-79.473811
PETRO CANADA,1493 FINCH AVE W M3J-2G7 NORTH YORK,Encore - 649,11-Feb-2023,100000.0,M3J-2G7,43.760733,-79.499214
PETRO CANADA,1755 DUNDAS ST W L1P-1Y9 WHITBY,Encore - Daily Grand,23-Feb-2023,100000.0,L1P-1Y9,43.869656,-78.985129
PETRO CANADA,1845 ADELAIDE ST N N5X-0E3 LONDON,Encore - Ontario 49,17-Jun-2023,100000.0,N5X-0E3,43.04613,-81.261293
PETRO CANADA,3766 FALLOWFIELD RD K2J-1A1 NEPEAN,Encore - 649,01-Feb-2023,100000.0,K2J-1A1,45.28749,-75.757223
PETRO CANADA,471 MAIN ST S L6Y-1N6 BRAMPTON,Encore - Daily Keno,02-Feb-2023,100000.0,L6Y-1N6,43.668966,-79.738123
PETRO CANADA,471 MAIN ST S L6Y-1N6 BRAMPTON,Encore - Daily Keno,07-Feb-2023,100000.0,L6Y-1N6,43.668966,-79.738123
PETRO CANADA,5 SANDALWOOD PKY W L7A-1J6 BRAMPTON,Encore - 649,25-Feb-2023,100000.0,L7A-1J6,43.717097,-79.803103
PETRO CANADA,610 ATHERLEY RD L3V-1P2 ORILLIA,BINGO DBLR,31-2315,100000.0,L3V-1P2,44.605565,-79.374983
PETRO CANADA,695 BURNHAMTHORPE RD W L5C-3A6 MISSISSAUGA,Encore - Lotto Max,25-Apr-2023,100000.0,L5C-3A6,43.579315,-79.652489
PIONEER ON THE RUN,545 WOODWARD AVE L8H-6P2 HAMILTON,Encore - 649,25-Mar-2023,100000.0,L8H-6P2,43.247774,-79.777048
PIONEER SNACK EXPRESS,1105 KING ST E N2G-2N3 KITCHENER,Lotto 649,25-Mar-2023,100000.0,N2G-2N3,43.441581,-80.471548
PIONEER SNACK EXPRESS,146 LIBERTY ST S L1C-2P4 BOWMANVILLE,Encore - Lotto Max,03-Mar-2023,100000.0,L1C-2P4,43.901587,-78.676918
REXALL #2188 - CALEDONIA,351 ARGYLE ST S N3W-1K7 CALEDONIA,Encore - Pick 2,14-Apr-2023,100000.0,N3W-1K7,43.062399,-79.962064
REXALL #34,1205 FISHER ST P1B-2H2 NORTH BAY,Encore - Ontario 49,22-Mar-2023,100000.0,P1B-2H2,46.311065,-79.447796
SDM #1247 - MCKEOWN & JOSEPHINE,66 JOSEPHINE ST P1B-0A7 NORTH BAY,PAYLN MULTPR,31-2349,100000.0,P1B-0A7,46.332796,-79.469056
SDM #1254 - INNES & PORTOBELLO,1937 PORTOBELLO BLVD K4A-4W9 ORLEANS,Encore - Lotto Max,19-May-2023,100000.0,K4A-4W9,45.468064,-75.46588
SDM #616 - RITSON CENTRE,300 TAUNTON RD E L1G-7T4 OSHAWA,Encore - 649,15-Mar-2023,100000.0,L1G-7T4,43.936241,-78.867801
SDM #670 - NEW SUDBURY CENTRE,1349 LASALLE BLVD P3A-1Z2 SUDBURY,Encore - 649,18-Mar-2023,100000.0,P3A-1Z2,46.520053,-80.946701
SDM #771 - SOUTH COMMON MALL,2126 BURNHAMTHORPE RD W L5L-5Z5 MISSISSAUGA,Encore - Lotto Max,14-Jul-2023,100000.0,L5L-5Z5,43.54478,-79.681657
SHELL,12871 YONGE ST. L4E-1A3 RICHMOND HILL,Encore - 649,06-May-2023,100000.0,L4E-1A3,43.941346,-79.453407
SHELL,2 VAUGHAN VALLEY RD L4K-3C4 CONCORD,Encore - 649,15-Feb-2023,100000.0,L4K-3C4,43.772398,-79.626523
SHELL C STORE,4790 DORCHESTER RD L2E-6N9 NIAGARA FALLS,Encore - 649,07-Jun-2023,100000.0,L2E-6N9,43.103838,-79.110783
SHELL CANADA,135 REXDALE BLVD M9W-1P7 ETOBICOKE,Encore - Lotto Max,20-Jun-2023,100000.0,M9W-1P7,43.711223,-79.567107
SHELL GAS STATION,232 MAIN ST K0M-1A0 BOBCAYGEON,Encore - Lotto Max,24-Feb-2023,100000.0,K0M-1A0,44.547806,-78.542343
SHELL GAS STATION,5286 DUNDAS ST W M9B-1B2 ETOBICOKE,Encore - 649,22-Mar-2023,100000.0,M9B-1B2,43.637224,-79.539541
SHELL WHITES ROAD,690 KINGSTON RD L1V-1A6 PICKERING,POWER UP,31-2368,100000.0,L1V-1A6,43.819137,-79.116143
SHERWOOD CONVENIENCE,19272 HIGHWAY 60 K0J-1B0 BARRYS BAY,Encore - Lotto Max,06-Jun-2023,100000.0,K0J-1B0,45.490582,-77.660302
SMOKE & VARIETY,5 HILLCROFT DR L3S-1R6 MARKHAM,Encore - Lotto Max,21-Apr-2023,100000.0,L3S-1R6,43.830512,-79.279929
SMOKER'S KORNER,2900 WARDEN AVE M1W-2S8 SCARBOROUGH,100KMONYMTCH,31-2358,100000.0,M1W-2S8,43.798308,-79.318379
SOBEYS #6730,255 DUNDAS ST E L8B-0E5 WATERDOWN,Lotto 649,25-Mar-2023,100000.0,L8B-0E5,43.331022,-79.898752
SOL CONVENIENCE,1243 ST. CLAIR AVE W M6E-1B8 TORONTO,Poker Lotto,01-Jun-2023,100000.0,M6E-1B8,43.677094,-79.445825
SP&G,82 PENINSULA ROAD P0T-2E0 MARATHON,Encore - 649,24-Jun-2023,100000.0,P0T-2E0,48.726453,-86.376682
STEELES EDWARD K. CIGAR & NEWS,6229 BATHURST ST M2R-2A5 NORTH YORK,Encore - Lotto Max,20-Jun-2023,100000.0,M2R-2A5,43.791916,-79.444377
STONEY LAKE VARIETY,10420 124 HWY P0A-1Z0 SUNDRIDGE,SUIT UP,31-2356,100000.0,P0A-1Z0,45.75439152,-79.42580427
TELLY'S VARIETY,775 COLBORNE ST N3S-3S3 BRANTFORD,Encore - Lotto Max,28-Apr-2023,100000.0,N3S-3S3,43.143443,-80.226983
THE COUNTRY STORE,9142 HWY 17 P0R-1C0 BRUCE MINES,Encore - 649,03-Jun-2023,100000.0,P0R-1C0,46.30030159,-83.79477536
ULTRAMAR TRENTON,110 COUNTY RD 33 K8V-5P6 TRENTON,Encore - Lotto Max,18-Apr-2023,100000.0,K8V-5P6,44.0907539,-77.57925542
VANDERWERF'S YOUR INDEPENDENT GROCER,1244 GODERICH ST N0H-2C0 PORT ELGIN,Encore - Lotto Max,09-May-2023,100000.0,N0H-2C0,44.45111,-81.378353
VICTORY CONVENIENCE,2976 FALCONBRIDGE HWY P3L-1J6 GARSON,Encore - Lotto Max,07-Jul-2023,100000.0,P3L-1J6,46.548423,-80.878711
WAVERLEY VARIETY,114 WAVERLEY RD L1C-3W9 BOWMANVILLE,Lotto 649,25-Mar-2023,100000.0,L1C-3W9,43.9050494,-78.6936729
WEST RIDGE CONVENIENCE STORE,3300 MONARCH DR L3V-8A2 ORILLIA,Lotto 649,25-Mar-2023,100000.0,L3V-8A2,44.610817,-79.451646
ZEHRS #507 - ESSA ROAD,11 BRYNE DR L4N-8V8 BARRIE,Encore - Lotto Max,03-Feb-2023,100000.0,L4N-8V8,44.358347,-79.695032
ZEHRS #552 - UXBRIDGE,323 TORONTO ST S L9P-1N2 UXBRIDGE,Encore - Lotto Max,17-Feb-2023,100000.0,L9P-1N2,44.089717,-79.130756
ESSO,5241 BLOOMINGTON RD L4A-2W9 STOUFFVILLE,Poker Lotto All In,13-Jun-2023,99448.4,L4A-2W9,44.000088,-79.290045
QUICK PICK CONVENIENCE,164 SANDALWOOD PKY E L6Z-3S4 BRAMPTON,Lotto Max,17-Feb-2023,94468.9,L6Z-3S4,43.72759,-79.796848
GIANT TIGER #159 SCARBOROUGH,682 KENNEDY RD M1K-2B5 SCARBOROUGH,Lotto Max,21-Mar-2023,91824.4,M1K-2B5,43.727569,-79.266863
7-ELEVEN ST.CLAIR W,1169 ST CLAIR AVE W M6E-1B2 TORONTO,WILD 8,31-2352,88888.0,M6E-1B2,43.677794,-79.442836
C & H VARIETY,329 ADELAIDE AVE E L1G-1Z9 OSHAWA,WILD 8,31-2352,88888.0,L1G-1Z9,43.90669,-78.854336
METRO #229- KING ROSE PLACE,1900 KING ST E L8K-1W1 HAMILTON,WILD 8,31-2352,88888.0,L8K-1W1,-37.7297492,142.0061205
QUICKIE BROCKVILLE 40002,1275 KENSINGTON PKY K6V-6C3 BROCKVILLE,WILD 8,31-2352,88888.0,K6V-6C3,44.608085,-75.713383
SHELL,2975 ST JOSEPH BLVD K1C-7C2 ORLEANS,WILD 8,31-2352,88888.0,K1C-7C2,45.475909,-75.516524
LOBLAWS #1028 - RICHMOND HILL,301 HIGH TECH RD L4B-4R2 RICHMOND HILL,Lotto Max,26-May-2023,88590.0,L4B-4R2,43.843124,-79.410876
BEST PRICE CORNER STORE,415 TECUMSEH RD W N8X-1G5 WINDSOR,Lotto Max,16-Jun-2023,85696.7,N8X-1G5,42.295279,-83.029705
STOUFFVILLE HUSKY,2210 STOUFFVILLE RD L0H-1G0 GORMLEY,Lotto 649,29-Mar-2023,85379.0,L0H-1G0,43.942287,-79.380024
WHITE OAKS TICKET CENTRE,1105 WELLINGTON RD N6E-1V4 LONDON,Lotto 649,29-Mar-2023,85379.0,N6E-1V4,42.931426,-81.224774
BUCKHORN FOODLAND,3329 BUCKHORN RD K0L-1J0 BUCKHORN,Lotto Max,07-Jul-2023,82911.1,K0L-1J0,44.553134,-78.339974
GOLD STAR CONVENIENE,3100 DIXIE RD L4Y-2A6 MISSISSAUGA,Lotto 649,12-Apr-2023,81744.7,L4Y-2A6,43.6095,-79.586588
PETRO CANADA,1071 DUNDAS ST S N1R-5S2 CAMBRIDGE,Lotto 649,12-Apr-2023,81744.7,N1R-5S2,43.348444,-80.276063
PETRO CANADA,7011 BATHURST ST L4J-2J6 THORNHILL,Lotto 649,12-Apr-2023,81744.7,L4J-2J6,43.79317,-79.445311
WELLINGTON MINI MART,297 WELLINGTON ST E L4G-6H6 AURORA,Poker Lotto All In,07-Jul-2023,77009.2,L4G-6H6,44.002527,-79.451238
CANADIAN TIRE #182,2129 ST CLAIR AVE W M6N-5B4 TORONTO,LUCKY LINES,31-2299,75000.0,M6N-5B4,43.670468,-79.472001
GLEN'S VARIETY STORE & GAS BAR,300 ST ANDREWS ST N1S-1P3 CAMBRIDGE,CASINO CASH,31-2340,75000.0,N1S-1P3,43.344249,-80.331443
GREENWOOD FOOD MARKET,247 GREENWOOD AVE M4L-2R4 TORONTO,CASHINGO,31-2361,75000.0,M4L-2R4,43.670783,-79.327653
JEM MART #40,3397 FALCONBRIDGE HWY P3L-1E4 GARSON,CASINO CASH,31-2340,75000.0,P3L-1E4,46.552877,-80.866233
MOBIL MART (GAS BAR),1150 16TH ST E N4K-1Z3 OWEN SOUND,LUCKY LINES,31-2299,75000.0,N4K-1Z3,44.575387,-80.92394
NEW YORK NEWS - LAWRENCE SQ,700 LAWRENCE AVE W M6A-3B4 NORTH YORK,ROULETTE,31-2364,75000.0,M6A-3B4,43.716748,-79.447193
POINT VARIETY,510 MICHIGAN AVE N7V-1G5 POINT EDWARD,CASHINGO,31-2361,75000.0,N7V-1G5,42.997976,-82.408117
SAK'S FINE FOODS,1677 O'CONNOR DR M4A-1W5 NORTH YORK,CASHINGO,31-2361,75000.0,M4A-1W5,43.718769,-79.30403
SOBEYS #707 - NORTH PARK,930 NORTH PARK DR L6S-3Y5 BRAMPTON,CASINO CASH,31-2340,75000.0,L6S-3Y5,43.734489,-79.744318
THE TICKET SHOP,6464 YONGE ST M2M-3X4 NORTH YORK,TETRIS,31-2362,75000.0,M2M-3X4,43.795849,-79.422372
BALTAZ CORNERS,2351 FISCHER HALLMAN RD N0B-1E0 AYR,Lotto Max,21-Apr-2023,74651.4,N0B-1E0,43.3574,-80.482217
SMITH'S ULTRAMAR,21 GREER RD P0B-1L0 PORT SYDNEY,Lotto 649,03-Jun-2023,73755.0,P0B-1L0,45.196564,-79.312289
MAC'S HOWARD,2730 HOWARD AVE N8X-3X6 WINDSOR,Poker Lotto All In,21-May-2023,73097.2,N8X-3X6,42.283157,-83.01041
PETRO CANADA,3733 HIGHWAY 7  W L4L-1A6 WOODBRIDGE,Lotto 649,11-Feb-2023,72300.0,L4L-1A6,43.78904,-79.546888
CITY CONVENIENCE,380 CROCKETT ST L8V-1H9 HAMILTON,Lotto 649,04-Mar-2023,71198.6,L8V-1H9,43.235703,-79.840125
LITTLE ELEVEN CONVENIENCE,409 YONGE ST L4N-4E1 BARRIE,Lotto 649,24-May-2023,69758.9,L4N-4E1,44.366464,-79.661919
GIANT TIGER #137 NIAGARA FALLS,6161 THOROLD STONE RD L2J-1A4 NIAGARA FALLS,Lotto 649,13-May-2023,63048.4,L2J-1A4,43.116235,-79.096988
MACEWEN SEYMOUR- COUNTY LINE,1375 SEYMOUR ST P1B-9V6 NORTH BAY,Lotto 649,13-May-2023,63048.4,P1B-9V6,46.308232,-79.437924
CIRCLE K #1382 - FERNDALE,221 FERNDALE DR S L4N-6B9 BARRIE,Lotto 649,08-Feb-2023,62248.1,L4N-6B9,44.354781,-79.714345
PETRO CANADA GAS STATION,5899 BALDWIN ST S L1M-2J7 WHITBY,Poker Lotto All In,08-May-2023,61982.9,L1M-2J7,43.951671,-78.961606
ESSO/CIRCLE K #52590,1472 WELLINGTON ST E L4G-7B6 AURORA,Poker Lotto All In,27-Mar-2023,59904.6,L4G-7B6,44.011081,-79.419355
PIONEER/SHOP & GO CONVENIENCE,161 PETER ST L1A-1C7 PORT HOPE,Lotto 649,07-Jun-2023,59762.2,L1A-1C7,43.950708,-78.279359
CIRCLE K #66123 - BLOOR,2244 BLOOR ST W M6S-1N6 TORONTO,Lotto 649,01-Apr-2023,55918.8,M6S-1N6,43.651224,-79.477226
GATEWAY NEWSTANDS #55,1800 SHEPPARD AVE E M2J-5A7 NORTH YORK,Poker Lotto All In,13-May-2023,55143.2,M2J-5A7,43.777758,-79.344484
ACTION  CONVENIENCE,1701 MARTIN GROVE RD M9V-4N4 ETOBICOKE,Ontario 49,25-Mar-2023,50000.0,M9V-4N4,43.733151,-79.588894
BUCK OR TWO PLUS #603,275 BROCKVILLE ST K7A-4Z6 SMITHS FALLS,Ontario 49,19-Apr-2023,50000.0,K7A-4Z6,44.882765,-76.015336
CANADIAN TIRE GAS BAR #1171,678 HWY 401 WESTBOUND K0E-1R0 MALLORYTOWN,Daily Keno,22-May-2023,50000.0,K0E-1R0,44.488957,-75.857578
CANADIAN TIRE GAS BAR #1719,1101 ONTARIO ST N5A-6W6 STRATFORD,BINGO,31-3037,50000.0,N5A-6W6,43.37038,-80.943269
CARLTON CONVENIENCE,230 BATHURST ST M5T-2S3 TORONTO,Daily Keno,14-Apr-2023,50000.0,M5T-2S3,43.648886,-79.404907
CHARTRAND'S YOUR INDEPENDENT GROCER,420 MAIN ST S K0C-1A0 ALEXANDRIA,CROSSWORD,31-3235,50000.0,K0C-1A0,45.299463,-74.629555
D.N.T. VARIETY,510 BROADWAY ST N4G-3S7 TILLSONBURG,BINGO DBLR,31-2315,50000.0,N4G-3S7,42.875258,-80.74251
ESSO/CIRCLE K #52418,281 RICHVALE DR S L6Z-4W5 BRAMPTON,Daily Keno,11-Feb-2023,50000.0,L6Z-4W5,43.719802,-79.773229
ESSO/CIRCLE K #52668,3600 SHEPPARD AVE E M1T-3K7 SCARBOROUGH,Daily Keno,03-Apr-2023,50000.0,M1T-3K7,43.781534,-79.29901
FAMILY MART #2,1240 TALBOT ST N5P-1G9 ST THOMAS,GOLDEN JP,31-2333,50000.0,N5P-1G9,42.7777616,-81.1501186
GATEWAY NEWSTANDS #105,16 YORK MILLS RD M2P-2E5 NORTH YORK,Daily Keno,15-Jun-2023,50000.0,M2P-2E5,43.744821,-79.405461
GOLDIE'S VARIETY,679 MOHAWK RD E L8V-2K6 HAMILTON,Daily Keno,07-May-2023,50000.0,L8V-2K6,43.219557,-79.843374
JANE VARIETY & GIFTS,2721 JANE ST M3L-1S3 NORTH YORK,CROSSWORD,31-3235,50000.0,M3L-1S3,43.740365,-79.512229
KING'S MILK,1265 KING ST W M6K-1G6 TORONTO,CROSSWORD,31-3235,50000.0,M6K-1G6,43.638151,-79.430661
LUCKY LOTTO CENTRE,2900 WARDEN AVE M1W-2S8 SCARBOROUGH,Daily Keno,24-Jun-2023,50000.0,M1W-2S8,43.798308,-79.318379
M & M VARIETY,443 KERR ST L6K-3C2 OAKVILLE,Daily Keno,09-Feb-2023,50000.0,L6K-3C2,43.44578,-79.684869
MEADOWBROOKS VARIETY,545 ARMSTRONG RD K7M-7G9 KINGSTON,Daily Keno,09-May-2023,50000.0,K7M-7G9,44.240218,-76.54246
MISTER CONVENIENCE,184 MARINA BLVD K9H-6M9 PETERBOROUGH,Daily Keno,14-Jul-2023,50000.0,K9H-6M9,44.33318,-78.323575
NEIGHBOURHOOD CONVENIENCE,894 MOUNT PLEASANT RD M4P-2L6 TORONTO,Daily Keno,05-May-2023,50000.0,M4P-2L6,43.7112189,-79.3914905
OASIS GAS & VARIETY,1824 FOURTH LINE N0A-1M0 OHSWEKEN,BINGO DBLR,31-2315,50000.0,N0A-1M0,43.068235,-80.117545
PETER'S CONVENIENCE,1050 UPPER GAGE AVE L8V-5B7 HAMILTON,Daily Keno,07-May-2023,50000.0,L8V-5B7,43.21269,-79.846576
PETRO CANADA,1253 WELLINGTON RD N6E-1M4 LONDON,CROSSWORD,31-3235,50000.0,N6E-1M4,42.9261,-81.218
PETRO CANADA,1270 BRIMLEY RD M1P-3G6 SCARBOROUGH,Daily Keno,04-Mar-2023,50000.0,M1P-3G6,43.769384,-79.262176
PETRO CANADA,1651 ELLESMERE RD M1H-2V4 SCARBOROUGH,Ontario 49,17-May-2023,50000.0,M1H-2V4,43.771943,-79.250729
PETRO CANADA,587 THIRD LINE L6L-4A8 OAKVILLE,Daily Keno,18-May-2023,50000.0,L6L-4A8,43.417692,-79.715559
PIONEER ON THE RUN,7209 DRUMMOND RD L2G-4P7 NIAGARA FALLS,CROSSWORD,31-3235,50000.0,L2G-4P7,43.071128,-79.097494
REXALL #6909 - SCARBOR GEN HOSPITAL,3030 LAWRENCE AVE E M1P-2T7 SCARBOROUGH,BINGO MULTIP,31-3080,50000.0,M1P-2T7,43.756116,-79.247039
SDM #1410 - BLOOR & BEDFORD,236 BLOOR ST W M5S-1T8 TORONTO,Daily Keno,05-Jun-2023,50000.0,M5S-1T8,43.66835,-79.396895
SDM #693 - NORTHGATE PLAZA,980 CENTRAL PARK DR L6S-3L7 BRAMPTON,CROSSWORD,31-3235,50000.0,L6S-3L7,43.733794,-79.720514
SMOKER'S KORNER,2900 WARDEN AVE M1W-2S8 SCARBOROUGH,Daily Keno,11-May-2023,50000.0,M1W-2S8,43.798308,-79.318379
STAR CONVENIENCE & VIDEO,1125 BLOOR ST L4Y-2N6 MISSISSAUGA,Daily Keno,14-Feb-2023,50000.0,L4Y-2N6,43.611526,-79.601306
STOREASY,846 PAPE AVE M4K-3T6 EAST YORK,REEL CASH,31-2360,50000.0,M4K-3T6,43.6837094,-79.3469531
WELCOME GUARDIAN PHARMACY,1881 YONGE ST M4S-3C4 TORONTO,Ontario 49,01-Apr-2023,50000.0,M4S-3C4,43.69775,-79.396046
WELLINGTON CONVENIENCE,700 WELLINGTON ST N7T-1J2 SARNIA,Ontario 49,01-Mar-2023,50000.0,N7T-1J2,42.968847,-82.386528
WENDY'S ONE STOP SHOP,15101 HIGHWAY 48 L4A-3B5 STOUFFVILLE,Ontario 49,11-Mar-2023,50000.0,L4A-3B5,44.034332,-79.29599
CIRCLE K #802 - HIGHGATE,1402 HIGHGATE RD K2C-2Y6 OTTAWA,Lotto 649,22-Mar-2023,44538.2,K2C-2Y6,45.348894,-75.769909
OLIVEWOOD HUSKY,879 KIPLING AVE M8Z-5H2 ETOBICOKE,Lotto 649,22-Mar-2023,44538.2,M8Z-5H2,43.635886,-79.53247
PIONEER ON THE RUN,2430 FAIRVIEW ST L7R-2E4 BURLINGTON,Lotto 649,22-Mar-2023,44538.2,L7R-2E4,43.346314,-79.797941
THE AIRWAYS GENERAL STORE,2667 SECOND LINE W P6A-6K4 PRINCE TWP,Lotto 649,22-Mar-2023,44538.2,P6A-6K4,46.534546,-84.482751
FORTINOS,2911 MAJOR MACKENZIE DR L6A-3N9 MAPLE,Lotto Max,28-Mar-2023,43475.0,L6A-3N9,43.849243,-79.532756
MILK PLUS,1909 ELLESMERE RD M1H-2W5 SCARBOROUGH,Lotto Max,28-Mar-2023,43475.0,M1H-2W5,43.7740791,-79.2410163
SDM #667 - ELLIOT LAKE,220 ONTARIO AVE P5A-1Y5 ELLIOT LAKE,Lotto Max,28-Mar-2023,43475.0,P5A-1Y5,46.386432,-82.65003
GATEWAY NEWSTANDS,1571 SANDHURST CIR M1V-1V2 SCARBOROUGH,Poker Lotto All In,24-May-2023,39661.3,M1V-1V2,43.809271,-79.26959
BYNG VARIETY AND GAS CORP,10 PORT MAITLAND RD N1A-1Y4 DUNNVILLE,DOUBLE IT,31-2351,35000.0,N1A-1Y4,42.893277,-79.62581
SCHOMBERG FOODLAND 6392,17250 HIGHWAY 27 RD L0G-1T0 SCHOMBERG,DOUBLE IT,31-2351,35000.0,L0G-1T0,44.00427,-79.678398
DAISY MART,75 ALDER ST L9W-5A9 ORANGEVILLE,PAY DAY,31-2371,30000.0,L9W-5A9,43.903514,-80.126974
QUEEN ST. VARIETY,1296 QUEEN ST E M4L-1C4 TORONTO,PAY DAY,31-2371,30000.0,M4L-1C4,43.6638384,-79.3284325
RABBA KINGSCROSS,17 KINGSCROSS RD L6T-3V5 BRAMPTON,PAY DAY,31-2371,30000.0,L6T-3V5,43.720107,-79.71606
CIRCLE K #00186,75 WILLIAM ST N K9V-4A3 LINDSAY,WILD 8,31-2352,28888.0,K9V-4A3,44.357182,-78.738387
SDM #728 - CONESTOGA MALL,550 KING ST N N2L-5W6 WATERLOO,WILD 8,31-2352,28888.0,N2L-5W6,43.497705,-80.527049
ANGEL'S CONVENIENCE,2965 ISLINGTON AVE M9L-2K7 NORTH YORK,Lotto 649,31-May-2023,27875.8,M9L-2K7,43.758149,-79.569833
BIG BEAR FOOD MART,159 HIGHLAND RD E N2M-3W1 KITCHENER,Lotto 649,31-May-2023,27875.8,N2M-3W1,43.438528,-80.493341
7-ELEVEN LAKESHORE,3260 LAKE SHORE BLVD W M8V-1M4 ETOBICOKE,Lotto 649,15-Feb-2023,25000.0,M8V-1M4,43.597303,-79.522942
777 VARIETY STORE,3095 BATHURST ST M6A-2A3 NORTH YORK,Pick 4,22-Feb-2023,25000.0,M6A-2A3,43.72065,-79.429616
99 MINI MART,445 BROCK ST N L1N-4H8 WHITBY,Lotto 649,15-Feb-2023,25000.0,L1N-4H8,43.88514872,-78.94429197
ALBERTO GROCERY,472 SAMMON AVE M4J-2B4 EAST YORK,Lotto 649,15-Feb-2023,25000.0,M4J-2B4,43.688181,-79.329453
ALBION JUG CITY,1620 ALBION RD M9V-4B4 ETOBICOKE,Daily Keno,09-May-2023,25000.0,M9V-4B4,43.742139,-79.591553
ASSELIN'S YOUR INDEPENDENT GROCER,1560 CAMERON ST K6A-3S5 HAWKESBURY,Lotto 649,15-Feb-2023,25000.0,K6A-3S5,45.593532,-74.601852
AVONDALE STEWART MARKET,1620 DOMINION RD L2A-5M4 FORT ERIE,Ontario 49,10-May-2023,25000.0,L2A-5M4,42.886323,-78.975571
BEST VALUE,462 BIRCHMOUNT RD M1K-1N8 SCARBOROUGH,Daily Keno,06-Apr-2023,25000.0,M1K-1N8,43.707187,-79.269776
BUSY BEE MART,1261 ALEXANDRA AVE L5E-2A7 MISSISSAUGA,Daily Keno,09-May-2023,25000.0,L5E-2A7,43.580191,-79.567898
CAMILLA HUSKY,155 NORTH SERVICE RD L5A-1A2 MISSISSAUGA,Ontario 49,11-Feb-2023,25000.0,L5A-1A2,43.572141,-79.596401
CANADIAN TIRE GAS BAR #1118,274 FOURTH AVE L2R-6P9 ST CATHARINES,Daily Keno,09-Jun-2023,25000.0,L2R-6P9,43.154861,-79.269935
CANADIAN TIRE GAS PLUS #1021,1895 HYDE PARK RD N6H-0A3 LONDON,Daily Keno,07-Mar-2023,25000.0,N6H-0A3,43.007956,-81.336213
CANCO 122 COLLINGWOOD,143 HUME ST L9Y-1V7 COLLINGWOOD,BINGO,31-3037,25000.0,L9Y-1V7,44.49656,-80.211518
CIRCLE K #1433 - CARNWITH,200 CARNWITH DR E L1M-0A1 WHITBY,Lotto 649,15-Feb-2023,25000.0,L1M-0A1,43.968723,-78.949283
CIRCLE K #18 - TAYLOR,215 TAYLOR RD P1L-1K1 BRACEBRIDGE,Lotto 649,15-Feb-2023,25000.0,P1L-1K1,45.046237,-79.300912
CIRCLE K #55 - LEACOCK,420 LEACOCK DR L4N-5M6 BARRIE,TETRIS,31-2362,25000.0,L4N-5M6,44.391052,-79.722886
CIRCLE K #60309 - ISLINGTON,2428 ISLINGTON AVE M9W-3X8 ETOBICOKE,Pick 4,19-Apr-2023,25000.0,M9W-3X8,43.723506,-79.559926
CNIB - PRIZE CENTRE,20 DUNDAS ST W M5G-2C2 TORONTO,Daily Keno,05-May-2023,25000.0,M5G-2C2,43.656409,-79.382364
DAISY MART,34 HARWOOD AVE S L1S-2B6 AJAX,Ontario 49,10-May-2023,25000.0,L1S-2B6,43.855095,-79.023521
EASY CONVENIENCE STORE,3655 ST CLAIR AVE E M1M-1T1 SCARBOROUGH,CROSSWORD,31-3235,25000.0,M1M-1T1,43.718427,-79.250753
ELLIOTT'S CIGAR,2790 DANFORTH AVE M4C-1M1 TORONTO,Daily Keno,21-Mar-2023,25000.0,M4C-1M1,43.689563,-79.296496
ESSO,197 BELLAMY RD N M1J-2L3 SCARBOROUGH,Daily Keno,06-Apr-2023,25000.0,M1J-2L3,43.746302,-79.230674
ESSO ON THE RUN,2263 DUNDAS ST N5W-3E3 LONDON,Lotto 649,15-Feb-2023,25000.0,N5W-3E3,43.009938,-81.154119
ESSO/HASTY MARKET,14010 HURONTARIO ST L7C-2C1 INGLEWOOD,TETRIS,31-2362,25000.0,L7C-2C1,43.773581,-79.878971
FRIENDS VARIETY,150 SIDNEY ST K8P-5E2 BELLEVILLE,Daily Keno,04-May-2023,25000.0,K8P-5E2,44.159704,-77.399532
GATEWAY NEWSTANDS,84 LYNDEN RD N3R-6B8 BRANTFORD,Lotto 649,13-May-2023,25000.0,N3R-6B8,43.171074,-80.240048
GATEWAY NEWSTANDS #569,2 KING ST W L8P-1A1 HAMILTON,Lotto 649,15-Feb-2023,25000.0,L8P-1A1,-37.78558,175.27019
GATEWAY NEWSTANDS KIOSK #128,15 JANE ST M6S-3Y3 TORONTO,Daily Keno,19-Apr-2023,25000.0,M6S-3Y3,43.649729,-79.483616
GIANT TIGER #19 NAPANEE,13 INDUSTRIAL BLVD K7R-1M7 NAPANEE,Lotto 649,13-May-2023,25000.0,K7R-1M7,44.258052,-76.960555
GIANT TIGER #211 HANOVER,880 10TH ST N4N-1S3 HANOVER,Lotto 649,13-May-2023,25000.0,N4N-1S3,44.156775,-81.007282
GREEN BLOCK TRADING POST,1 WATER L9M-1V5 PENETANGUISHENE,Lotto 649,15-Feb-2023,25000.0,L9M-1V5,44.769984,-79.935308
HARRISTON CONVENIENCE,26 ELORA ST S N0G-1Z0 HARRISTON,Lotto 649,15-Feb-2023,25000.0,N0G-1Z0,43.912544,-80.87093
IMPERIAL VARIETY,220 WELLINGTON ST N L8L-5A8 HAMILTON,Daily Keno,22-Feb-2023,25000.0,L8L-5A8,43.259957,-79.856274
J & B VARIETY,139 GLENMORRIS ST N1S-2Z4 CAMBRIDGE,CASHINGO,31-2361,25000.0,N1S-2Z4,43.34505,-80.321425
J'S VARIETY,434 LACLIE ST L3V-4P6 ORILLIA,100KMONYMTCH,31-2358,25000.0,L3V-4P6,44.62643,-79.4223197
K-CEE'S,18530 COUNTY ROAD 18 K0C-1S0 MARTINTOWN,Lotto 649,15-Feb-2023,25000.0,K0C-1S0,45.16347415,-74.66481147
LUCKY OXALIS INC.,2150 BURNHAMTHORPE RD W L5L-3A2 MISSISSAUGA,Lotto 649,15-Feb-2023,25000.0,L5L-3A2,43.543994,-79.683255
M & C LUCKY CONVENIENCE,141 MARTIN GROVE RD M9B-4K8 ETOBICOKE,Daily Keno,04-Mar-2023,25000.0,M9B-4K8,43.6494188,-79.5488909
M & D VARIETY,2700 KIPLING AVE M9V-4P2 ETOBICOKE,Daily Keno,05-Jun-2023,25000.0,M9V-4P2,43.75669,-79.58931
MAC'S ELGIN,87 VICTORIA ST S N7A-3H8 GODERICH,Ontario 49,11-Feb-2023,25000.0,N7A-3H8,43.740087,-81.707443
MAC'S MCNAUGHTON W,170 MCNAUGHTON AVE W N7L-1R4 CHATHAM,Lotto 649,13-May-2023,25000.0,N7L-1R4,42.411025,-82.204387
MAC'S YONGE,17725 YONGE ST L3Y-7C1 NEWMARKET,Lotto 649,15-Feb-2023,25000.0,L3Y-7C1,44.059732,-79.479907
MC CONVENIENCE,411 MANHATTAN DR L3P-7P4 UNIONVILLE,Lotto 649,15-Feb-2023,25000.0,L3P-7P4,43.88111,-79.288753
METRO #479- ORILLIA,70 FRONT ST N L3V-4R8 ORILLIA,Daily Keno,30-May-2023,25000.0,L3V-4R8,44.612369,-79.414892
METRO #759- MERCHANDISE BLDG,89 GOULD ST M5B-2R1 TORONTO,Daily Keno,19-Apr-2023,25000.0,M5B-2R1,43.658067,-79.376645
MISTER CONVENIENCE,184 MARINA BLVD K9H-6M9 PETERBOROUGH,Daily Keno,07-May-2023,25000.0,K9H-6M9,44.33318,-78.323575
MORELLO'S YOUR INDEPENDENT GROCER,400 LANSDOWNE ST E K9L-0B2 PETERBOROUGH,Lotto 649,15-Feb-2023,25000.0,K9L-0B2,44.293197,-78.28988
MOUNT ALBERT MAIN MILK & CONVENIENCE,61 MAIN ST L0G-1M0 MOUNT ALBERT,Daily Keno,30-Mar-2023,25000.0,L0G-1M0,44.135291,-79.309806
MR. GAS,400 DANIEL ST S K7S-3G9 ARNPRIOR,Lotto 649,15-Feb-2023,25000.0,K7S-3G9,45.423192,-76.36876
NEWLY ELSON'S VARIETY & GIFT,280 ELSON ST L3S-3L1 MARKHAM,Daily Keno,14-Apr-2023,25000.0,L3S-3L1,43.84073,-79.25294
NEWS DEPOT,262 DUNDAS ST N6A-1H3 LONDON,SUIT UP,31-2356,25000.0,N6A-1H3,42.984858,-81.245912
NICK'S CONFECTIONERY,920 MONTREAL RD K1K-0S8 OTTAWA,CROSSWORD,31-3235,25000.0,K1K-0S8,45.4464404,-75.6286906
PETRO CANADA,1270 BRIMLEY RD M1P-3G6 SCARBOROUGH,Pick 4,16-May-2023,25000.0,M1P-3G6,43.769384,-79.262176
PETRO CANADA,277 HIGHBURY AVE N5Z-2W8 LONDON,Pick 4,08-Jul-2023,25000.0,N5Z-2W8,42.984036,-81.198177
PETRO CANADA,354 QUEEN ST E L6V-1C3 BRAMPTON,Daily Keno,26-Apr-2023,25000.0,L6V-1C3,43.703695,-79.741492
PETRO CANADA,385 WESTON RD M6N-3P7 TORONTO,Daily Keno,03-May-2023,25000.0,M6N-3P7,43.680635,-79.475149
PETRO CANADA,9878 DIXIE RD L6S-5W4 BRAMPTON,Lotto 649,15-Feb-2023,25000.0,L6S-5W4,43.729228,-79.748202
PICKERING FOOD FAIR,1360 KINGSTON RD L1V-3B4 PICKERING,Pick 4,09-Jun-2023,25000.0,L1V-3B4,43.83837,-79.088857
PIONEER ON THE RUN,4495 BATH RD K7N-1A5 AMHERSTVIEW,Daily Keno,15-Feb-2023,25000.0,K7N-1A5,44.219207,-76.642233
PIONEER ON THE RUN,857 10TH ST N4N-1S1 HANOVER,Daily Keno,10-Jun-2023,25000.0,N4N-1S1,45.58201032,-93.58553234
QUICK PICK VARIETY,37 JOHN ST P2B-1Y2 STURGEON FALLS,CROSSWORD,31-3235,25000.0,P2B-1Y2,46.369585,-79.930573
QUICK STOP CONVENIENCE,876 DANFORTH RD M1K-1H8 SCARBOROUGH,Pick 4,26-Apr-2023,25000.0,M1K-1H8,43.728386,-79.2525111
RED APPLES CONVENIENCE,5700 MAVIS RD L5V-2N6 MISSISSAUGA,CASHINGO,31-2361,25000.0,L5V-2N6,43.607039,-79.69028
REXALL #83 -  SOUTHDOWN ROAD,1375 SOUTHDOWN RD L5J-2Z1 MISSISSAUGA,Pick 4,11-Jun-2023,25000.0,L5J-2Z1,43.519209,-79.639302
ROBLIN GAS BAR,3243 HIGHWAY 41 K0K-2W0 ROBLIN,SUIT UP,31-2356,25000.0,K0K-2W0,44.378475,-77.021596
SAM'S FOOD MARKET AND CONVENIENCE,9587 WESTON RD L4H-3A5 WOODBRIDGE,Pick 4,30-Apr-2023,25000.0,L4H-3A5,43.834305,-79.557091
SAWA CONVENIENCE STORE,8633 WESTON RD L4L-9R6 WOODBRIDGE,Daily Keno,03-May-2023,25000.0,L4L-9R6,43.812321,-79.55182
SHOP 'N GO CONVENIENCE,100 CAVELL AVE M8V-3V6 ETOBICOKE,Pick 4,30-Apr-2023,25000.0,M8V-3V6,43.616047,-79.496616
SIOUX LOTTERY CENTRE,64 FRONT ST P8T-1B1 SIOUX LOOKOUT,Daily Keno,06-Jul-2023,25000.0,P8T-1B1,50.0983232,-91.9183315
SMOKE & GIFT,1 SPADINA RD L4B-3M2 RICHMOND HILL,100KMONYMTCH,31-2358,25000.0,L4B-3M2,43.861375,-79.395151
SNAPPY FOOD MART,3600 ELLESMERE RD M1C-4Y8 SCARBOROUGH,Daily Keno,25-May-2023,25000.0,M1C-4Y8,43.790363,-79.174127
SOBEYS #4740,1012 BROAD ST E N1A-2Z2 DUNNVILLE,Ontario 49,20-May-2023,25000.0,N1A-2Z2,42.902963,-79.597978
STARLIGHT CONVENIENCE & SMOKE SHOP,780 DUNDAS ST N4S-1E9 WOODSTOCK,Lotto 649,15-Feb-2023,25000.0,N4S-1E9,43.131644,-80.743557
STIRLING SHELL,115 BELLEVILLE RD K0K-3E0 STIRLING,Lotto 649,13-May-2023,25000.0,K0K-3E0,44.295073,-77.539562
SUPER CONVENIENCE,574A PLAINS RD E L7T-2E5 BURLINGTON,Daily Keno,11-Mar-2023,25000.0,L7T-2E5,43.320566,-79.833719
SUPER GREEN CONVENIENCE,321 SANDWICH ST S N9V-2A9 AMHERSTBURG,100KMONYMTCH,31-2358,25000.0,N9V-2A9,42.099831,-83.107823
THE CORNER STORE,475 WESTNEY RD N L1T-3H4 AJAX,Daily Keno,01-Apr-2023,25000.0,L1T-3H4,43.868079,-79.037984
TWO BROTHERS CONVENIENCE,899 GRAND MARAIS RD E N8X-3H9 WINDSOR,Daily Keno,01-Jul-2023,25000.0,N8X-3H9,42.28262,-83.001298
ULTRAMAR ON THE RUN,401 MARCH RD K2K-0K1 KANATA,Lotto 649,13-May-2023,25000.0,K2K-0K1,45.337655,-75.911642
VICKY & MOM'S CONVENIENCE,9000 WESTON RD L4L-0L1 WOODBRIDGE,Daily Keno,24-Mar-2023,25000.0,L4L-0L1,43.821266,-79.555998
WESTHEIGHTS CONVENIENCE,450 WESTHEIGHTS DR N2N-2B9 KITCHENER,Lotto 649,13-May-2023,25000.0,N2N-2B9,43.417649,-80.535728
WILSON'S VARIETY & GROCERY,220 SORAUREN AVE M6R-2E9 TORONTO,Pick 4,22-Feb-2023,25000.0,M6R-2E9,43.646308,-79.443758
YOUNG FOOD MART,4190 KINGSTON RD M1E-4W1 SCARBOROUGH,Daily Keno,15-Jul-2023,25000.0,M1E-4W1,43.759602,-79.197969
ZEHRS #505 - BRADFORD,500 HOLLAND ST W L3Z-0A2 BRADFORD,Lotto 649,15-Feb-2023,25000.0,L3Z-0A2,44.105705,-79.591681
GATEWAY LOTTO,35ST BLOOR ST E M4W-1A9 TORONTO,Lotto 649,25-Mar-2023,23635.3,M4W-1A9,43.6702938,-79.3855427
KAVIYAM CONVENIENCE STORE INC.,2 QUAKER VILLAGE DR L9P-1A1 UXBRIDGE,Lotto 649,25-Mar-2023,23635.3,L9P-1A1,44.105375,-79.13943
PETRO CAN CREDITSTONE,2651 RUTHERFORD RD L4K-2N6 CONCORD,Lotto 649,25-Mar-2023,23635.3,L4K-2N6,43.83287,-79.522357
PETRO CANADA,765 GARDINERS RD K7M-3Y5 KINGSTON,Lotto 649,25-Mar-2023,23635.3,K7M-3Y5,44.248874,-76.568919
ULTRAMAR ON THE RUN,150 CONSUMERS DR L1N-9S3 WHITBY,Lotto 649,25-Mar-2023,23635.3,L1N-9S3,43.868664,-78.929561
BCC LOTTO CENTRE,25 PEEL CENTRE DR L6T-3R5 BRAMPTON,Pick 4,02-May-2023,20000.0,L6T-3R5,43.715668,-79.722413
CANADIAN PETROLEUM,4919 STEELES AVE E M1V-4Z4 SCARBOROUGH,Pick 4,29-Apr-2023,20000.0,M1V-4Z4,43.827111,-79.290933
CANADIAN TIRE GAS BAR #1118,274 FOURTH AVE L2R-6P9 ST CATHARINES,Daily Keno,09-Jun-2023,20000.0,L2R-6P9,43.154861,-79.269935
COFFEE TIME #2532,2195 MIDLAND AVE M1P-3E7 SCARBOROUGH,Pick 4,07-Feb-2023,20000.0,M1P-3E7,43.77346,-79.272261
COLBORNE ESSO AND CONVENIENCE,109 KING ST E K0K-1S0 COLBORNE,Pick 4,04-Jul-2023,20000.0,K0K-1S0,44.007608,-77.87943
D & DALSY MART,4365 BRANDON GATE DR L4T-3K6 MISSISSAUGA,Pick 4,16-Mar-2023,20000.0,L4T-3K6,43.725514,-79.626854
DAISY FRESH CONVENIENCE,1980 ROSEFIELD RD L1V-3M4 PICKERING,Pick 4,06-Mar-2023,20000.0,L1V-3M4,43.846174,-79.089891
GATEWAY NEWSTANDS,419 KING ST W L1J-2K5 OSHAWA,Pick 4,21-Jun-2023,20000.0,L1J-2K5,43.890239,-78.879438
GATEWAY NEWSTANDS LAWRENCE WEST,655 LAWRENCE AVE W M6A-1A9 NORTH YORK,Pick 4,22-Feb-2023,20000.0,M6A-1A9,43.716217,-79.442426
MAC'S CIGAR STORE,1625 DUNDAS ST W M6K-1V2 TORONTO,Pick 4,29-Mar-2023,20000.0,M6K-1V2,43.6497677,-79.4359792
MAC'S CIGAR STORE,1625 DUNDAS ST W M6K-1V2 TORONTO,Pick 4,30-Apr-2023,20000.0,M6K-1V2,43.6497677,-79.4359792
MAC'S NEW LISKEARD,14 PAGET ST S P0J-1P0 NEW LISKEARD,GOLDEN JP,31-2333,20000.0,P0J-1P0,47.508289,-79.67492
MR. CONVENIENCE,1474 PICKWICK DR L5V-2G2 MISSISSAUGA,Pick 4,21-Apr-2023,20000.0,L5V-2G2,43.5923,-79.70376
PETRO CANADA,1095 DON MILLS RD M3C-1W7 NORTH YORK,Pick 4,23-Jun-2023,20000.0,M3C-1W7,43.736984,-79.342976
RAINBOW VARIETY,249 VAUXHALL DR M1P-1R6 SCARBOROUGH,Pick 4,24-Apr-2023,20000.0,M1P-1R6,43.7592178,-79.2893478
SDM #922 - RIMROCK PLAZA,1115 LODESTAR RD M3J-0G9 NORTH YORK,Pick 4,14-Mar-2023,20000.0,M3J-0G9,43.759148,-79.466435
SIJ DAISY MART,420 7 HWY E L4B-3K2 RICHMOND HILL,Pick 4,12-Apr-2023,20000.0,L4B-3K2,40.00658891,-75.00673437
VAN WART'S YOUR INDEPENDENT GROCER,235 GORE RD K7L-5H6 KINGSTON,BINGO MULTIP,31-3080,20000.0,K7L-5H6,44.258928,-76.455778
CIRCLE K #1739,33 HUNTER ST E K9H-1G4 PETERBOROUGH,Poker Lotto All In,15-Mar-2023,19992.9,K9H-1G4,44.305784,-78.311369
BURK'S SHELL,465 SABLE RD P0P-1P0 MASSEY,Poker Lotto All In,16-Mar-2023,19462.2,P0P-1P0,46.213045,-82.072018
BRIMLEY BOOK STORE,3833 MIDLAND AVE M1V-5L6 SCARBOROUGH,Lotto 649,18-Feb-2023,19055.8,M1V-5L6,43.813935,-79.291532
SHELL,115 SALEM RD S L1Z-2C9 AJAX,Lotto 649,18-Feb-2023,19055.8,L1Z-2C9,43.860395,-79.014111
TAUNTON CONVENIENCE,250 TAUNTON RD E L1G-7T1 OSHAWA,Lotto 649,18-Feb-2023,19055.8,L1G-7T1,43.935605,-78.870833
T.J.'S VARIETY,2184 BLOOR ST W M6S-1N3 TORONTO,Poker Lotto All In,06-Feb-2023,18836.6,M6S-1N3,43.651699,-79.474822
MEL ROSA VARIETY,140 LA ROSE AVE M9P-1B2 ETOBICOKE,Poker Lotto All In,16-Mar-2023,18430.6,M9P-1B2,43.685678,-79.523604
PETRO CANADA,39 MAIN ST E L0G-1A0 BEETON,Poker Lotto All In,08-Mar-2023,18189.1,L0G-1A0,44.079146,-79.782065
FRIEND'S CONVENIENCE,2400 GUELPH LINE L7P-4M7 BURLINGTON,Poker Lotto All In,20-Mar-2023,18150.3,L7P-4M7,43.37421036,-79.83525848
CIRCLE K #52 - 9TH AVE E,1596 9TH AVE E N4K-3G3 OWEN SOUND,Poker Lotto All In,21-Mar-2023,18034.2,N4K-3G3,44.573699,-80.927386
COTTAM GAS & VARIETY,100 COUNTY RD 34 N0R-1B0 COTTAM,Poker Lotto All In,17-Mar-2023,17930.5,N0R-1B0,42.12803,-82.744334
SOBEYS #925 OSHAWA,1377 WILSON RD N L1K-2Z5 OSHAWA,Poker Lotto All In,07-Feb-2023,17917.8,L1K-2Z5,43.938843,-78.858562
WENQING ZHENG VARIETY STORE,24164 WOODBINE AVE L4P-3C9 KESWICK,Poker Lotto All In,07-Mar-2023,17690.7,L4P-3C9,44.232202,-79.44863
BRADFORD #1 SMOKE &  VARIETY,189 HOLLAND ST L3Z-1X8 BRADFORD,Poker Lotto All In,02-Mar-2023,17360.9,L3Z-1X8,44.116164,-79.558159
SHELL SELECT,2950 WOODROFFE AVE K2J-4G3 NEPEAN,Poker Lotto All In,04-Feb-2023,17332.1,K2J-4G3,45.291677,-75.728024
SUMON CONVENIENCE STORE,2950 KENNEDY RD M1V-1T1 SCARBOROUGH,Poker Lotto All In,16-Apr-2023,16805.9,M1V-1T1,43.804724,-79.299297
KENDALWOOD SMOKERS CORNER,1801 DUNDAS ST E L1N-7C5 WHITBY,Poker Lotto All In,08-Mar-2023,16776.4,L1N-7C5,43.886805,-78.904145
RONA TUCK SHOP,11 ARLETA AVE M3L-2E3 NORTH YORK,Poker Lotto All In,17-Apr-2023,16623.4,M3L-2E3,43.742943,-79.5009603
SHELL PORT HOPE,156 TORONTO RD L1A-3S5 PORT HOPE,Poker Lotto All In,03-Mar-2023,16528.8,L1A-3S5,43.959062,-78.322
GIANT TIGER #14 CARLETON PLACE,320 COLEMAN ST K7C-0B5 CARLETON PLACE,Poker Lotto All In,17-Mar-2023,16454.7,K7C-0B5,45.140083,-76.128456
SDM #992 - SUNRISE CENTRE,1400 OTTAWA ST S N2E-4E2 KITCHENER,Poker Lotto All In,02-Mar-2023,16434.3,N2E-4E2,43.415272,-80.515819
BIG BEE CONVENIENCE,66 MALL RD L8V-5B9 HAMILTON,Poker Lotto All In,21-Mar-2023,16355.0,L8V-5B9,43.221336,-79.861257
SOBEYS #715 ALGONQUIN,1899 ALGONQUIN AVE P1B-4Y8 NORTH BAY,Poker Lotto All In,11-Mar-2023,16265.0,P1B-4Y8,46.331303,-79.468844
ON THE GO CONVENIENCE,15 LOCKPORT WAY L8E-0H8 STONEY CREEK,Poker Lotto All In,09-Mar-2023,15857.0,L8E-0H8,43.218547,-79.634026
GATEWAY NEWSTAND STORE #107,1900 YONGE ST M4S-1Z2 TORONTO,Poker Lotto All In,28-Feb-2023,15553.9,M4S-1Z2,43.697772,-79.396907
AVONDALE DUNN,6175 DUNN ST L2G-2P4 NIAGARA FALLS,Poker Lotto All In,02-Feb-2023,15516.1,L2G-2P4,43.079261,-79.096374
NATIONS FRESH FOODS,1980 ST CLAIR AVE W M6N-0A3 TORONTO,Poker Lotto All In,26-Feb-2023,15369.9,M6N-0A3,43.672746,-79.470851
RCS #562 - CHATHAM,791 ST. CLAIR ST N7M-5J7 CHATHAM,Poker Lotto All In,17-Mar-2023,15246.2,N7M-5J7,42.429766,-82.217491
KENDAL VARIETY,3 MILL ST L0A-1E0 KENDAL,Poker Lotto All In,11-Mar-2023,15199.5,L0A-1E0,44.0279622,-78.5311187
BECKER'S,112 GARAFRAXA ST N0G-1R0 DURHAM,Poker Lotto All In,01-May-2023,15001.7,N0G-1R0,44.1766633,-80.8187807
ARNIE'S SMOKE SHOP,6677 MEADOWVALE TOWN CENT L5N-2R5 MISSISSAUGA,Pick 4,10-Mar-2023,15000.0,L5N-2R5,43.583344,-79.759775
AVONDALE GREENHILL,399 GREENHILL AVE L8K-6N5 HAMILTON,Pick 4,08-Mar-2023,15000.0,L8K-6N5,43.216809,-79.796032
BIG BEE CONVENIENCE & FOOD MART,4725 DORCHESTER RD L2E-0A8 NIAGARA FALLS,Pick 4,01-Feb-2023,15000.0,L2E-0A8,43.10478,-79.113007
BRISTOL MARKET,512 BRISTOL RD W L5R-3Z1 MISSISSAUGA,Pick 4,15-Mar-2023,15000.0,L5R-3Z1,43.601996,-79.671233
CIRCLE K #1019 - TAPSCOTT,31 TAPSCOTT RD M1B-4Y7 SCARBOROUGH,Pick 4,13-Jun-2023,15000.0,M1B-4Y7,43.806746,-79.22206
CIRCLE K #1280 - GREENBANK,299 GREENBANK RD K2H-8K9 NEPEAN,Pick 4,13-Apr-2023,15000.0,K2H-8K9,45.323868,-75.77732
CIRCLE K #60249 - EGLINTON,2900 EGLINTON AVE E M1J-2E4 SCARBOROUGH,Pick 4,10-Apr-2023,15000.0,M1J-2E4,43.739412,-79.237948
COLBORNE ESSO AND CONVENIENCE,109 KING ST E K0K-1S0 COLBORNE,Pick 4,04-Jul-2023,15000.0,K0K-1S0,44.007608,-77.87943
CORNER DISCOUNT,1333A DUNDAS ST W M6J-1X8 TORONTO,Pick 4,09-May-2023,15000.0,M6J-1X8,43.6493302,-79.4266347
DOLLAR CLUB,875 ST CLAIR AVE W M6C-1C4 TORONTO,Pick 4,01-Feb-2023,15000.0,M6C-1C4,43.679825,-79.433215
FINCH MAIN CONVENIENCE,2437 FINCH AVE W M9M-2E7 NORTH YORK,Pick 4,14-Apr-2023,15000.0,M9M-2E7,43.749719,-79.549771
GATEWAY NEWSTANDS PLUS LOTTO,1700 WILSON AVE M3L-1B2 NORTH YORK,Pick 4,17-Feb-2023,15000.0,M3L-1B2,43.721828,-79.511629
GLO-HAR CONVENIENCE STORE,1888 KENNEDY RD M1P-2L8 SCARBOROUGH,Pick 4,01-Jun-2023,15000.0,M1P-2L8,43.766519,-79.281763
GORMANVILLE GROCERY,504 GORMANVILLE RD P1B-4V5 NORTH BAY,BINGO MULTIP,31-3080,15000.0,P1B-4V5,46.325349,-79.487549
JF VARIETY,1911 FINCH AVE W M3N-2V2 NORTH YORK,Pick 4,29-Apr-2023,15000.0,M3N-2V2,43.756282,-79.515442
KILBRIDE COUNTRY STORE,2090 KILBRIDE ST L7P-0J1 BURLINGTON,Pick 4,06-Mar-2023,15000.0,L7P-0J1,43.424225,-79.938615
KITCHEN FOOD FAIR,45 OVERLEA BLVD M4H-1C3 TORONTO,Pick 4,23-Apr-2023,15000.0,M4H-1C3,43.705726,-79.346048
LUCKY LOTTERY CENTER,5085 SHEPPARD AVE E M1S-4N8 SCARBOROUGH,Pick 4,17-Apr-2023,15000.0,M1S-4N8,43.792495,-79.240104
MEGA CONVENIENCE,2002 MIDDLEFIELD RD L3S-1Y5 MARKHAM,Pick 4,27-Feb-2023,15000.0,L3S-1Y5,43.833215,-79.268903
PETRO CAN SHEPPARD,3905 SHEPPARD AVE E M1T-3L5 SCARBOROUGH,Pick 4,10-Jul-2023,15000.0,M1T-3L5,43.782791,-79.288697
PETRO CANADA,18423 HURONTARIO ST L7K-0X8 CALEDON VILLAGE,Pick 4,26-Feb-2023,15000.0,L7K-0X8,43.861278,-79.995652
PETRO CANADA,925 SIMCOE ST N L1G-4W3 OSHAWA,Pick 4,25-May-2023,15000.0,L1G-4W3,43.921962,-78.873759
PICK QUICK SMOKE & VARIETY,4451 KINGSTON RD M1E-2N7 SCARBOROUGH,Pick 4,22-Feb-2023,15000.0,M1E-2N7,43.76919028,-79.18800348
SHELL,1805 VICTORIA PARK AVE M1R-1T3 SCARBOROUGH,Pick 4,14-Jul-2023,15000.0,M1R-1T3,43.742639,-79.309511
SHELL GAS HWY10/WEXFORD,10178 HURONTARIO ST L7A-0E4 BRAMPTON,Daily Keno,16-Feb-2023,15000.0,L7A-0E4,43.709115,-79.792324
SHELL SELECT,1501 WELLINGTON ST E L4G-7B8 AURORA,Pick 4,07-May-2023,15000.0,L4G-7B8,44.010563,-79.417937
SHELL SELECT,408 HWY 7  E L4B-1A7 RICHMOND HILL,Pick 4,10-Apr-2023,15000.0,L4B-1A7,43.842668,-79.392569
SOBEYS #4719 -  MILTON,1035 BRONTE ST S L9T-8X3 MILTON,Pick 4,11-Feb-2023,15000.0,L9T-8X3,43.489093,-79.85826
WEG - WOODBINE RACETRACK,555 REXDALE BLVD M9W-5L2 ETOBICOKE,Pick 4,11-Mar-2023,15000.0,M9W-5L2,43.715139,-79.604184
WESTON DEPARTMENT STORE,1925 WESTON RD M9N-1W7 YORK,Pick 4,19-May-2023,15000.0,M9N-1W7,43.700645,-79.517068
SDM #777 - ROCKWOOD MALL,4141 DIXIE RD L4W-1V5 MISSISSAUGA,Poker Lotto All In,21-Mar-2023,14947.4,L4W-1V5,43.62564,-79.604682
GIANT TIGER #231 BRAMPTON,499 MAIN ST S L6Y-1N7 BRAMPTON,Poker Lotto All In,03-Mar-2023,14910.7,L6Y-1N7,43.666109,-79.737565
GOLDIE'S VARIETY,679 MOHAWK RD E L8V-2K6 HAMILTON,Poker Lotto All In,26-Jul-2023,14634.8,L8V-2K6,43.219557,-79.843374
ESSO/CIRCLE K# 52388,2471 BARTON ST E L8E-2X1 HAMILTON,Poker Lotto All In,02-May-2023,13877.9,L8E-2X1,43.237105,-79.759591
SDM #1466 - CHINGUACOUSY & CHAROLAIS,520 CHAROLAIS BLVD L6Y-0R5 BRAMPTON,Poker Lotto All In,03-Mar-2023,13723.1,L6Y-0R5,43.650075,-79.761118
HASTY SHEPPARD E,2926 SHEPPARD AVE E M1T-3J4 SCARBOROUGH,Poker Lotto All In,02-May-2023,12980.5,M1T-3J4,43.776049,-79.322054
ESSO/CIRCLE K# 52511,236 GLENDALE AVE L2T-2L2 ST CATHARINES,Poker Lotto All In,28-Jun-2023,11984.5,L2T-2L2,43.132985,-79.223925
ESSO/CONVENIENCE STORE,17844 LESLIE ST L3Y-3E5 NEWMARKET,Lotto Max,09-May-2023,11833.6,L3Y-3E5,44.07423,-79.434398
LAKESHORE FOOD MART,941A LAKESHORE RD E L5E-1E3 MISSISSAUGA,Poker Lotto All In,23-Feb-2023,11771.1,L5E-1E3,43.575464,-79.560837
CIRCLE K# 65031,615 CAMPBELL ST N0G-2H0 LUCKNOW,Poker Lotto All In,27-Jun-2023,11702.4,N0G-2H0,43.9616205,-81.5159841
THICKSON HUSKY,1600 ROSSLAND RD E L1N-5R5 WHITBY,Poker Lotto All In,09-Apr-2023,11257.3,L1N-5R5,43.904675,-78.919864
CTIRE GAS BAR,77 MAPLEVIEW DR W L4N-9H7 BARRIE,Poker Lotto All In,10-Apr-2023,11129.7,L4N-9H7,44.333164,-79.693161
ESSO GAS STATION,124 TILLSON AVE N4G-3A5 TILLSONBURG,Poker Lotto All In,20-Jul-2023,11082.7,N4G-3A5,42.867497,-80.723728
PRESTON FOOD MART,71 PRESTON ST K1R-7N8 OTTAWA,Poker Lotto All In,12-Apr-2023,11022.6,K1R-7N8,45.409644,-75.714735
AVONDALE KILLALY EAST,189 KILLALY ST E L3K-1N7 PORT COLBORNE,Poker Lotto All In,24-Jun-2023,11012.0,L3K-1N7,42.891371,-79.242629
CIRCLE K #45 - 10TH STREET E,280 10TH ST E N4K-1S5 OWEN SOUND,Poker Lotto All In,25-Jun-2023,10913.3,N4K-1S5,44.568206,-80.942047
MAC'S LISTOWEL,275 WALLACE AVE N N4W-1L1 LISTOWEL,Poker Lotto All In,07-Apr-2023,10613.1,N4W-1L1,43.733384,-80.952077
HIGHBURY MINI MART,1141 HIGHBURY AVE N5Y-1A5 LONDON,Poker Lotto All In,11-Apr-2023,10596.0,N5Y-1A5,43.012939,-81.212604
REXALL #1909 -  AMHERSTBURG,71 SANDWICH ST S N9V-1Z5 AMHERSTBURG,Poker Lotto All In,16-Jul-2023,10505.1,N9V-1Z5,42.108627,-83.109803
CNIB WM - ANCASTER,1051 GARNER RD W L9G-3K9 ANCASTER,Poker Lotto All In,08-Apr-2023,10301.8,L9G-3K9,43.197547,-80.013806
#300 FORTINOS (EASTGATE 2012),75 CENTENNIAL PKY N L8E-2P2 HAMILTON,Lottario,18-Mar-2023,10000.0,L8E-2P2,43.230816,-79.765787
7-ELEVEN OTTAWA,925 OTTAWA ST N8X-2E2 WINDSOR,Lottario,01-Jul-2023,10000.0,N8X-2E2,42.308116,-83.016591
A & H CONVENIENCE STORE,70 PLUNKETT RD M9L-2J5 NORTH YORK,Daily Keno,12-Apr-2023,10000.0,M9L-2J5,43.759597,-79.570344
AMHERST PHARMASAVE,3485 KINGSTON RD M1M-1R4 SCARBOROUGH,Encore - 649,15-Mar-2023,10000.0,M1M-1R4,43.737636,-79.217326
AU COIN VARIETY,31 PRINCIPAL ST P0H-2M0 VERNER,Lotto 649,01-Jul-2023,10000.0,P0H-2M0,46.4121315,-80.12961737
AVONDALE HWY 8/GATESHEAD,184 8 HWY L8G-1C3 STONEY CREEK,Lotto 649,15-Jul-2023,10000.0,L8G-1C3,43.222146,-79.741678
AVONDALE VILLAGE GREEN,1501 HWY 55 L0S-1T0 VIRGIL,Encore - 649,12-Apr-2023,10000.0,L0S-1T0,43.221146,-79.122261
BALLINAFAD FARM MARKET,14303 TRAFALGER RD N0B-1H0 BALLINAFAD,Encore - Lotto Max,25-Apr-2023,10000.0,N0B-1H0,43.694302,-80.009097
BESTWAY CONVENIENCE,110 RITCHIE AVE L1S-7G5 AJAX,Pick 4,02-Mar-2023,10000.0,L1S-7G5,43.854561,-79.040573
BIG BEAR FOOD MART,159 HIGHLAND RD E N2M-3W1 KITCHENER,Lottario,01-Apr-2023,10000.0,N2M-3W1,43.438528,-80.493341
BIG'S MILK,150 LAKESHORE RD W L5H-3R2 MISSISSAUGA,PAYLN MULTPR,31-2349,10000.0,L5H-3R2,43.548851,-79.589366
BIRCHAVEN VARIETY,163 SAGE RD P1A-3A5 NORTH BAY,Encore - Lotto Max,06-Jun-2023,10000.0,P1A-3A5,46.323374,-79.414032
BLUE WATER BRIDGE DUTY FREE SHOP,2 BRIDGE ST N7V-4J5 POINT EDWARD,Lottario,10-Jun-2023,10000.0,N7V-4J5,-23.3713835,150.5155221
BOB'S VARIETY,3364 KEELE ST M3J-1L5 NORTH YORK,Daily Keno,21-Mar-2023,10000.0,M3J-1L5,43.745905,-79.48752
BROADWAY GAS BAR,226 BROADWAY L9W-1K5 ORANGEVILLE,Pick 4,06-Feb-2023,10000.0,L9W-1K5,43.918632,-80.098825
BUSY BEE VARIETY,100 PLAINS RD W L7T-0A5 BURLINGTON,Encore - Lotto Max,30-May-2023,10000.0,L7T-0A5,43.303667,-79.855652
BUSY BEE VARIETY,100 PLAINS RD W L7T-0A5 BURLINGTON,Lotto 649,01-Jul-2023,10000.0,L7T-0A5,43.303667,-79.855652
CALEDON #1 CONVENIENCE STORE,12541 KENNEDY RD L7C-3T6 CALEDON,Daily Keno,25-Feb-2023,10000.0,L7C-3T6,43.7568081,-79.8285326
CALEDON EAST FOODLAND,15771 AIRPORT RD L7C-1K2 CALEDON EAST,Lotto 649,01-Jul-2023,10000.0,L7C-1K2,43.866184,-79.860706
CANADIAN TIRE GAS BAR KENORA,1201 HIGHWAY 17  E P9N-1L9 KENORA,Encore - 649,05-Apr-2023,10000.0,P9N-1L9,49.759652,-94.473217
CANADIAN TIRE GAS BAR PLUS #1059,95 YOUNG ST L9R-0E9 ALLISTON,Encore - 649,08-Jul-2023,10000.0,L9R-0E9,44.147874,-79.882717
CAPSTONE MARKET,2 CAPSTONE LANE P1H-0A2 HUNTSVILLE,Daily Keno,11-Apr-2023,10000.0,P1H-0A2,45.341084,-79.222577
CAPSTONE MARKET,2 CAPSTONE LANE P1H-0A2 HUNTSVILLE,Encore - 649,04-Feb-2023,10000.0,P1H-0A2,45.341084,-79.222577
CENTRAL SHELL,3579 TECUMSEH RD E N8W-1H5 WINDSOR,Encore - Lotto Max,13-Jun-2023,10000.0,N8W-1H5,42.28835774,-83.0644146
CHOICES PLUS,1100 PEMBROKE ST E K8A-6Y7 PEMBROKE,Lottario,04-Mar-2023,10000.0,K8A-6Y7,45.820607,-77.084468
CIRCLE K # 65050 MARKDALE,50 TORONTO ST N N0C-1H0 MARKDALE,Encore - Lotto Max,02-May-2023,10000.0,N0C-1H0,44.319347,-80.649752
CIRCLE K #10- ATHERLEY,317 ATHERLEY RD L3V-1N8 ORILLIA,BONUS MONEY,31-2355,10000.0,L3V-1N8,44.605344,-79.395958
CIRCLE K #116 - GEORGE,135 GEORGE ST N K9J-3G6 PETERBOROUGH,Encore - 649,03-Jun-2023,10000.0,K9J-3G6,44.297273,-78.319959
CIRCLE K #1288,40 PIONEER DR N2P-2A4 KITCHENER,BINGO MULTIP,31-3080,10000.0,N2P-2A4,43.395926,-80.432071
CIRCLE K #1739,33 HUNTER ST E K9H-1G4 PETERBOROUGH,POWER UP,31-2368,10000.0,K9H-1G4,44.305784,-78.311369
CIRCLE K #367 - ELGIN,160 ELGIN ST K2P-2C4 OTTAWA,Daily Keno,10-Apr-2023,10000.0,K2P-2C4,45.419666,-75.693282
CIRCLE K #60309 - ISLINGTON,2428 ISLINGTON AVE M9W-3X8 ETOBICOKE,Pick 4,13-Mar-2023,10000.0,M9W-3X8,43.723506,-79.559926
CIRCLE K #61026 - WESTNEY ROAD,955 WESTNEY RD S L1S-3K7 AJAX,Encore - 649,27-May-2023,10000.0,L1S-3K7,43.83148,-79.016344
CIRCLE K #63015 - KESWICK,522 THE QUEENSWAY  S L4P-2E6 KESWICK,Encore - Lotto Max,16-May-2023,10000.0,L4P-2E6,44.208834,-79.467099
CIRCLE K #65072,108 DAWSON RD L9W-2W6 ORANGEVILLE,Lotto 649,01-Jul-2023,10000.0,L9W-2W6,43.908714,-80.0969
CIRCLE K #66087 - ROSSLAND E,555 ROSSLAND RD E L1K-1K8 OSHAWA,Daily Keno,27-Apr-2023,10000.0,L1K-1K8,43.919198,-78.849835
CIRCLE K #66087 - ROSSLAND E,555 ROSSLAND RD E L1K-1K8 OSHAWA,Lottario,04-Mar-2023,10000.0,L1K-1K8,43.919198,-78.849835
CIRCLE K STORE #1800 - PORT ELGIN,176 GODERICH ST N0H-2C3 PORT ELGIN,CASH IN,31-2367,10000.0,N0H-2C3,44.425936,-81.397559
CNIB - CARLINGWOOD MALL,2121 CARLING AVE K2A-1H2 OTTAWA,THE BIG SPIN,31-3108,10000.0,K2A-1H2,45.37312,-75.768789
CNIB WM - CAMBRIDGE,22 PINEBUSH RD N1R-8K5 CAMBRIDGE,Lottario,15-Jul-2023,10000.0,N1R-8K5,43.410754,-80.327315
CNIB WM - MILTON,1280 STEELES AVE E L9T-6R1 MILTON,Encore - Lotto Max,23-May-2023,10000.0,L9T-6R1,43.542418,-79.866907
CNIB WM - ORILLIA,175 MURPHY RD L3V-0B5 ORILLIA,Lottario,04-Mar-2023,10000.0,L3V-0B5,44.614807,-79.446144
CNIB WM KANATA,5357 FERNBANK RD K2S-1B6 STITTSVILLE,Encore - Lotto Max,26-May-2023,10000.0,K2S-1B6,45.275122,-75.872433
CNIB WM-CENTENNIAL PKWY,510 CENTENNIAL PKY N L8E-0G2 HAMILTON,Encore - Lotto Max,02-Jun-2023,10000.0,L8E-0G2,43.241849,-79.753464
COLLEGE VARIETY PLUS,830 COLLEGE ST M6G-1C8 TORONTO,Encore - 649,29-Mar-2023,10000.0,M6G-1C8,43.654594,-79.422495
COMMISSO BAKERY,8 KINCORT ST M6M-3E1 YORK,Lottario,08-Apr-2023,10000.0,M6M-3E1,43.697478,-79.468629
COMPLETE MART,1200 YORK MILLS RD M3A-1X8 NORTH YORK,Encore - 649,01-Mar-2023,10000.0,M3A-1X8,43.75962,-79.335035
CORNER MARKET,1015 DUNDAS ST N5W-3A4 LONDON,Lottario,13-May-2023,10000.0,N5W-3A4,42.9926,-81.2171
CREDIT WOODLANDS CONVENIENCE,3353 THE CREDIT WOODLANDS L5C-2K1 MISSISSAUGA,Daily Keno,01-Feb-2023,10000.0,L5C-2K1,43.559412,-79.657639
CRYSTAL BEACH VARIETY STORE,2005 HIGHWAY 11-17 P7A-0L4 SHUNIAH,Encore - Lotto Max,03-Feb-2023,10000.0,P7A-0L4,48.543882,-88.913175
D.M. KITCHEN FOOD FAIR #112,2890 STEELES AVE E L3T-4X1 THORNHILL,CROSS DELUXE,31-3351,10000.0,L3T-4X1,43.811946,-79.359548
DAHL'S COIN LAUNDRY & COFFEE BAR LTD.,336 STEWART ST K7V-1Y1 RENFREW,Encore - Lotto Max,10-Feb-2023,10000.0,K7V-1Y1,45.477842,-76.696529
DAIRY JUG,3884 BLOOR ST W M9B-1L3 ETOBICOKE,Daily Keno,03-Feb-2023,10000.0,M9B-1L3,43.6406615,-79.5420877
DAISY KESWICK,25 METRO RD S L4P-1V7 KESWICK,POKER NIGHT,31-2341,10000.0,L4P-1V7,44.241589,-79.474734
DAISY MART,10 GILLINGHAM DR L6X-5A5 BRAMPTON,Daily Keno,16-Feb-2023,10000.0,L6X-5A5,43.703438,-79.784862
DAISY MART,1420 ERNEST AVE N6E-2H8 LONDON,Daily Keno,10-Apr-2023,10000.0,N6E-2H8,42.933859,-81.235917
DAISY MART,201 BROCK ST N L1N-4H6 WHITBY,POKER NIGHT,31-2341,10000.0,L1N-4H6,43.881959,-78.942502
DAISY MART,20962 DALTON RD L0E-1R0 SUTTON WEST,Encore - 649,12-Jul-2023,10000.0,L0E-1R0,44.3134,-79.367265
DAISY MART,258 MILL ST N4S-2X4 WOODSTOCK,Encore - 649,08-Mar-2023,10000.0,N4S-2X4,43.119528,-80.763108
DAISY MART,272 DUNDAS ST E M5A-1Z9 TORONTO,Encore - 649,14-Jun-2023,10000.0,M5A-1Z9,43.658396,-79.372131
DAISY MART,512 KINGSTON RD L1V-1A6 PICKERING,Encore - Lottario,03-Jun-2023,10000.0,L1V-1A6,43.814017,-79.123269
DAISY MART #81713,1084 REST ACRES RD N3L-0B5 PARIS,Encore - 649,15-Apr-2023,10000.0,N3L-0B5,43.179421,-80.385473
DAISY MART #85033,23 MAIN L9M-1S6 PENETANGUISHENE,Lottario,08-Apr-2023,10000.0,L9M-1S6,44.7719831,-79.9360913
DOG STAR SERVICES,418 MOYNEUR RD P0K-1M0 MATACHEWAN,Lottario,22-Apr-2023,10000.0,P0K-1M0,47.939987,-80.642488
DOLLAR POWER PLUS,640 EGLINTON AVE W L5R-3V2 MISSISSAUGA,Encore - Lotto Max,20-Jun-2023,10000.0,L5R-3V2,43.593314,-79.66654
DOLLARCADE,3413 FIELDGATE DR L4X-2J4 MISSISSAUGA,Encore - Lotto Max,04-Apr-2023,10000.0,L4X-2J4,43.624308,-79.588165
DRAGON SUPERMARKET,1367 DANFORTH AVE M4J-1N1 TORONTO,Daily Keno,03-Jul-2023,10000.0,M4J-1N1,43.682114,-79.328374
EASTVIEW PHARMACY,573 KING ST E L1H-1G3 OSHAWA,Pick 4,14-Apr-2023,10000.0,L1H-1G3,43.892161,-78.88445
ELMVALE PHARMASAVE,70 YONGE ST S L0L-1P0 ELMVALE,Encore - 649,22-Apr-2023,10000.0,L0L-1P0,44.578093,-79.861795
ERIN ESSO,61 MAIN ST N0B-1T0 ERIN,Encore - 649,10-Jun-2023,10000.0,N0B-1T0,43.769138,-80.061936
ERSKINE TUCK SHOP,140 ERSKINE AVE M4P-1Z2 TORONTO,Pick 4,27-May-2023,10000.0,M4P-1Z2,43.712841,-79.393903
ESSO GAS STATION / EXPRESS MART,12891 YONGE ST L4E-3M7 RICHMOND HILL,Lottario,20-May-2023,10000.0,L4E-3M7,43.942138,-79.453664
ESSO ON THE RUN,300 FIRST ST L9Y-1B1 COLLINGWOOD,Pick 4,07-Feb-2023,10000.0,L9Y-1B1,44.501691,-80.226119
ESSO ON THE RUN,375 GUELPH ST L7G-4B6 GEORGETOWN,Encore - Lotto Max,14-Feb-2023,10000.0,L7G-4B6,43.649505,-79.878773
ESSO SNACK EXPRESS,161 HWY 17 E P0M-3C0 WAHNAPITAE,Encore - 649,11-Feb-2023,10000.0,P0M-3C0,46.48781896,-80.80950696
ESSO SNACK EXPRESS,161 HWY 17 E P0M-3C0 WAHNAPITAE,Lottario,13-May-2023,10000.0,P0M-3C0,46.48781896,-80.80950696
ESSO/CIRCLE K #52395,1110 BATHURST ST M5R-3H2 TORONTO,Daily Keno,10-Feb-2023,10000.0,M5R-3H2,43.67348,-79.414819
ESSO/CIRCLE K #52423,632 BURNHAMTHORPE RD W L5B-2C4 MISSISSAUGA,Encore - 649,18-Mar-2023,10000.0,L5B-2C4,43.579435,-79.650559
ESSO/CIRCLE K #52493,1903 DUNDAS ST E L1N-2L5 WHITBY,Daily Keno,19-Apr-2023,10000.0,L1N-2L5,43.88839,-78.902335
ESSO/CIRCLE K #52505,2 BRYNE DR L4N-9Y4 BARRIE,THE BIG SPIN,31-3108,10000.0,L4N-9Y4,44.357808,-79.697515
ESSO/CIRCLE K #52668,3600 SHEPPARD AVE E M1T-3K7 SCARBOROUGH,Daily Keno,28-May-2023,10000.0,M1T-3K7,43.781534,-79.29901
ESSO/CIRCLE K# 52280,280 SCARLETT RD M9A-4S4 ETOBICOKE,Encore - Lotto Max,21-Mar-2023,10000.0,M9A-4S4,43.680809,-79.5093
ESSO/CIRCLE K# 52280,280 SCARLETT RD M9A-4S4 ETOBICOKE,Pick 4,20-Feb-2023,10000.0,M9A-4S4,43.680809,-79.5093
ESSO/CIRCLE K# 52408,2485 BLOOR ST W M6S-1P7 TORONTO,Lotto 649,01-Jul-2023,10000.0,M6S-1P7,43.648517,-79.485088
ESSO/CIRCLE K# 52501,1615 ELLESMERE RD M1P-2Y3 SCARBOROUGH,Daily Keno,04-Apr-2023,10000.0,M1P-2Y3,43.771524,-79.25186
ESSO/CIRCLE K# 52544,1185 DIVISION ST K7K-5W3 KINGSTON,Lottario,18-Mar-2023,10000.0,K7K-5W3,44.266018,-76.498184
ESSO/CIRCLE K# 52560,1890 JANE ST M9N-2T8 YORK,Pick 4,20-Feb-2023,10000.0,M9N-2T8,43.709503,-79.505959
ESSO/CIRCLE K# 52592,6015 LESLIE ST M2H-1J8 NORTH YORK,Pick 4,01-Apr-2023,10000.0,M2H-1J8,43.799327,-79.369749
ESSO/CIRCLE K# 52723,1970 WALKLEY RD K1H-1W1 OTTAWA,Daily Keno,23-Jun-2023,10000.0,K1H-1W1,45.383126,-75.630905
ESSO/CIRCLE K#52526,3764 HWY 7  W L4L-1A6 WOODBRIDGE,Lottario,01-Jul-2023,10000.0,L4L-1A6,43.789622,-79.548228
ESSO/CIRCLE K#52708,562 TRAFALGAR RD L6J-3J2 OAKVILLE,Encore - 649,21-Jun-2023,10000.0,L6J-3J2,43.458063,-79.682151
ESSO/MR.SUB/COUNTRY STYLE/URBAN EXPRESS,80 COLBORNE ST W N3T-1K5 BRANTFORD,PAYLN MULTPR,31-2349,10000.0,N3T-1K5,43.134277,-80.27342
FLYING J #860,1637 PETTIT RD L2A-5M4 FORT ERIE,Encore - Daily Grand,08-Jun-2023,10000.0,L2A-5M4,42.921244,-78.967205
FOOD BASICS #844 - LEAMINGTON,288 ERIE ST S N8H-3C5 LEAMINGTON,Encore - 649,13-May-2023,10000.0,N8H-3C5,42.035427,-82.599595
FOOD BASICS #921 - BROCKVILLE,3049 JEFFERSON DR K6V-6N7 BROCKVILLE,Lotto 649,01-Jul-2023,10000.0,K6V-6N7,44.598548,-75.70413
FORTINO'S,65 MALL RD L8V-5B5 HAMILTON,WHEEL OF FORTUNE LOTTO,16-Feb-2023,10000.0,L8V-5B5,35.104337,-82.983058
FORTINOS,330 QUEEN'S PLATE DR M9W-7J7 ETOBICOKE,Daily Keno,22-Apr-2023,10000.0,M9W-7J7,43.721354,-79.59562
FREE FLOW PETROLEUM,22153 LOYALIST PKY K0K-1L0 CARRYING PLACE,Encore - Lottario,11-Mar-2023,10000.0,K0K-1L0,44.061124,-77.60007
GATEWAY LOTTO BOOTH,35 BLOOR ST E M4W-1A9 TORONTO,Pick 4,14-Mar-2023,10000.0,M4W-1A9,43.6702938,-79.3855427
GATEWAY NEWSTANDS,6464 YONGE ST M2M-3X4 NORTH YORK,Daily Keno,05-Apr-2023,10000.0,M2M-3X4,43.795849,-79.422372
GATEWAY NEWSTANDS,9350 YONGE ST L4C-5G2 RICHMOND HILL,Lottario,18-Feb-2023,10000.0,L4C-5G2,43.854836,-79.436561
GATEWAY NEWSTANDS #155,25 PEEL CENTRE DR L6T-3R5 BRAMPTON,Encore - Lottario,01-Apr-2023,10000.0,L6T-3R5,43.715668,-79.722413
GATEWAY NEWSTANDS #367,1 YORK GATE BLVD M3N-3A1 NORTH YORK,Encore - Lotto Max,21-Mar-2023,10000.0,M3N-3A1,43.758195,-79.519665
GATEWAY NEWSTANDS PLUS LOTTO,1700 WILSON AVE M3L-1B2 NORTH YORK,Pick 4,03-Feb-2023,10000.0,M3L-1B2,43.721828,-79.511629
GEORGE'S CONVENIENCE,1470 CENTRE ST L4J-3N1 THORNHILL,Pick 4,01-Jun-2023,10000.0,L4J-3N1,43.8066,-79.473704
GEORGE'S CONVENIENCE,8565 HIGHWAY 27 L4H-4Y1 WOODBRIDGE,BONUS MONEY,31-2355,10000.0,L4H-4Y1,43.793648,-79.624501
GEORGES CONVENIENCE,9960 MCVEAN DR L6P-2S5 BRAMPTON,Pick 4,26-May-2023,10000.0,L6P-2S5,43.781161,-79.699762
GIANT TIGER #243 BRAMPTON,9065 AIRPORT RD L6S-0B8 BRAMPTON,Encore - 649,15-Mar-2023,10000.0,L6S-0B8,43.745665,-79.696231
GLO HAR VARIETY,4455 SHEPPARD AVE E M1S-3G9 SCARBOROUGH,Daily Keno,21-Apr-2023,10000.0,M1S-3G9,43.787437,-79.266936
GRAND BARGAIN JUNCTION GARDENS POSTAL OU,2938 DUNDAS ST W M6P-1Y8 TORONTO,Daily Keno,12-May-2023,10000.0,M6P-1Y8,43.665562,-79.46751
HAMILTON DAISY MART,181 MAIN ST W L8P-4S1 HAMILTON,Lottario,25-Feb-2023,10000.0,L8P-4S1,43.256944,-79.877719
HASTY MARKET,11 WESTWOOD DR N2M-2K5 KITCHENER,Encore - Lotto Max,16-May-2023,10000.0,N2M-2K5,43.446098,-80.523538
HASTY MARKET,30 RAMBLER DR L6W-1E2 BRAMPTON,Lottario,22-Apr-2023,10000.0,L6W-1E2,43.678201,-79.727715
HASTY MARKET,3475 KINGSTON RD M1M-1R4 SCARBOROUGH,Pick 4,24-Feb-2023,10000.0,M1M-1R4,43.737379,-79.217619
HASTY MARKET # 69,1785 QUEEN ST E L6T-4S3 BRAMPTON,Daily Keno,08-Mar-2023,10000.0,L6T-4S3,43.725853,-79.715046
HASTY MARKET # 69,1785 QUEEN ST E L6T-4S3 BRAMPTON,Daily Keno,19-Apr-2023,10000.0,L6T-4S3,43.725853,-79.715046
HASTY MARKET # 8,3101 KINGSWAY DR N2C-2M5 KITCHENER,Encore - Lotto Max,02-May-2023,10000.0,N2C-2M5,43.423018,-80.443931
HASTY MARKET & COUNTRY STYLE,670 REXDALE BLVD M9W-0B5 ETOBICOKE,Daily Keno,17-Feb-2023,10000.0,M9W-0B5,43.720766,-79.613137
HAVANA TOBACCONIST,6380 FALLSVIEW BLVD L2G-7Y6 NIAGARA FALLS,CROSSTRIPLER,31-3301,10000.0,L2G-7Y6,43.082337,-79.080747
HAVANA TOBACCONIST,6380 FALLSVIEW BLVD L2G-7Y6 NIAGARA FALLS,Pick 4,04-Feb-2023,10000.0,L2G-7Y6,43.082337,-79.080747
HELLO CONVENIENCE,2 HENDERSON DR L4G-3L2 AURORA,Pick 4,12-Apr-2023,10000.0,L4G-3L2,43.983941,-79.464373
HELLO CONVENIENCE,2 HENDERSON DR L4G-3L2 AURORA,Pick 4,23-Apr-2023,10000.0,L4G-3L2,43.983941,-79.464373
HERITAGE CORNER,1500 HERITAGE WAY L6M-3H4 OAKVILLE,Pick 4,07-May-2023,10000.0,L6M-3H4,43.429714,-79.746688
HIGHLANDS COUNTRY STORE,5639 MCDONALDS CORNERS RD K0G-1M0 MCDONALDS CORNE,Encore - 649,01-Apr-2023,10000.0,K0G-1M0,47.47121429,-0.35148329
HILLTOP SHELL,26 MANITOUWANING RD P0P-1K0 LITTLE CURRENT,Encore - 649,06-May-2023,10000.0,P0P-1K0,45.978157,-81.924191
IDA BOGGIO PHARMACY,200 CATHARINE ST L3K-4K8 PORT COLBORNE,Encore - Lotto Max,21-Apr-2023,10000.0,L3K-4K8,42.885298,-79.253051
IDA MILK AND VARIETY,2988 DUFFERIN ST M6B-3T3 NORTH YORK,Daily Keno,09-Jul-2023,10000.0,M6B-3T3,43.710366,-79.454351
INS MARKET #5529,705 DON MILLS RD M3C-1S1 NORTH YORK,Daily Keno,09-Feb-2023,10000.0,M3C-1S1,43.709542,-79.333722
J STAR CONVENIENCE STORE,105 GUILDWOOD PKY M1E-1P1 SCARBOROUGH,Daily Keno,27-Mar-2023,10000.0,M1E-1P1,43.746659,-79.199877
J&J PETROLEUM,98 DUNDAS ST E K8V-1K9 TRENTON,Lottario,27-May-2023,10000.0,K8V-1K9,44.105135,-77.568614
JAY JALARAM INC.,499 MAIN ST S L6Y-1N7 BRAMPTON,Lottario,27-May-2023,10000.0,L6Y-1N7,43.666109,-79.737565
JEON SE GYE CANADA,65 RONCESVALLES AVE M6R-2K6 TORONTO,Encore - 649,29-Apr-2023,10000.0,M6R-2K6,43.6412173,-79.4469123
JIFFY MINIMART,270 CHANCELLOR DR L4L-7M1 WOODBRIDGE,Pick 4,04-Apr-2023,10000.0,L4L-7M1,36.83063406,-76.10792123
JOE'S CONVENIENCE STORE,10077 YONGE ST L4C-1T7 RICHMOND HILL,Lottario,01-Apr-2023,10000.0,L4C-1T7,43.873198,-79.43716
JOLLY'S VARIETY & GROCERY,6636 BARKER ST L2G-1Y8 NIAGARA FALLS,Encore - Lotto Max,14-Feb-2023,10000.0,L2G-1Y8,43.0868955,-79.1055742
KAMEL CONVENIENCE,3938 COTTRELLE BLVD L6P-2R1 BRAMPTON,Pick 4,07-Jun-2023,10000.0,L6P-2R1,43.784751,-79.662148
KEN'S VARIETY,10 VANIER DR N7L-4P6 CHATHAM,Lotto 649,08-Jul-2023,10000.0,N7L-4P6,42.4179677,-82.1761181
KFF CONVENIENCE,2375 BRIMLEY RD M1S-3L6 SCARBOROUGH,Pick 4,01-Jun-2023,10000.0,M1S-3L6,43.798341,-79.272434
LITTLE SHORT STOP STORE #1110,3014 KING ST E N2A-1B3 KITCHENER,CROSSWORD,31-3235,10000.0,N2A-1B3,43.428765,-80.431527
LITTLE SHORT STOP STORE #4060,175 BEVERLY ST N1R-7Y9 CAMBRIDGE,Encore - Pick 3,25-Feb-2023,10000.0,N1R-7Y9,43.366511,-80.304899
LITTLE SHORT STORE #3040,373 BRIDGE ST W N2K-3K3 WATERLOO,Lottario,22-Apr-2023,10000.0,N2K-3K3,43.495421,-80.501304
LITTLE SHORT STORE #4040,200 PRESTON PKY N3H-5N1 CAMBRIDGE,Lotto 649,01-Jul-2023,10000.0,N3H-5N1,43.399687,-80.376105
LOBLAWS #1066 - BURNAMTHORPE MARKET,380 THE EAST MALL M9B-6L5 ETOBICOKE,Lottario,10-Jun-2023,10000.0,M9B-6L5,43.643893,-79.560173
LS #2809 - SCARBOROUGH,1755 BRIMLEY RD M1P-0A3 SCARBOROUGH,Encore - Lotto Max,06-Jun-2023,10000.0,M1P-0A3,43.778004,-79.26325
LUCKY 7 CONVENIENCE,672 THE QUEENSWAY  S L4P-2G7 KESWICK,Encore - 649,11-Feb-2023,10000.0,L4P-2G7,44.199733,-79.466373
LUCKY TICKETS,1226 ISLINGTON AVE M8X-1Y8 ETOBICOKE,Pick 4,20-Apr-2023,10000.0,M8X-1Y8,43.6452266,-79.5240453
LUZON CONVENIENCE,284 COPPER CREEK DR L6B-1N7 MARKHAM,Lottario,25-Mar-2023,10000.0,L6B-1N7,43.8707988,-79.2215328
LYNN'S VARIETY INC,205 RICHMOND ST N9V-1G9 AMHERSTBURG,Lottario,24-Jun-2023,10000.0,N9V-1G9,42.103933,-83.105324
M & D VARIETY,2700 KIPLING AVE M9V-4P2 ETOBICOKE,Pick 4,05-Apr-2023,10000.0,M9V-4P2,43.75669,-79.58931
MAC'S LAUZON SOUTH,2675 LAUZON RD N8T-2Z5 WINDSOR,Encore - Lottario,06-May-2023,10000.0,N8T-2Z5,42.310715,-82.930349
MAC'S STURGEON FALLS,113 FRONT ST P2B-2H5 STURGEON FALLS,PAYLN MULTPR,31-2349,10000.0,P2B-2H5,46.366344,-79.924434
MACEWEN LUCAN (21018),33406 RICHMOND ST. N0M-2J0 LUCAN,Encore - Lotto Max,04-Jul-2023,10000.0,N0M-2J0,43.185532,-81.396887
MARINAS EXPRESS MART,19659 LESLIE ST L0G-1V0 SHARON,Pick 4,10-Apr-2023,10000.0,L0G-1V0,44.118227,-79.444629
MARKET,6400 400 HWY S L9S-0K6 INNISFIL,Lottario,15-Apr-2023,10000.0,L9S-0K6,44.245857,-79.671096
MC CONVENIENCE,411 MANHATTAN DR L3P-7P4 UNIONVILLE,Daily Keno,05-Feb-2023,10000.0,L3P-7P4,43.88111,-79.288753
MCDONOUGH'S YOUR INDEPENDENT GROCER,3777 STRANDHERD RD K2J-4B1 NEPEAN,POWER UP,31-2368,10000.0,K2J-4B1,45.268004,-75.746676
MEADOWVALE TICKET CENTRE,6677 MEADOWVALE TOWN CENT L5N-2R5 MISSISSAUGA,Lottario,06-May-2023,10000.0,L5N-2R5,43.583344,-79.759775
METRO #170- GARDINERS T.C.,460 GARDINERS RD K7M-7W8 KINGSTON,Encore - Lotto Max,17-Mar-2023,10000.0,K7M-7W8,44.235342,-76.567223
METRO #702- CLOVERDALE MALL,250 THE EAST MALL M9B-3Y8 ETOBICOKE,Lottario,18-Mar-2023,10000.0,M9B-3Y8,43.631587,-79.55522
METRO #853- PICKERING,1822 WHITE'S RD L1V-4M1 PICKERING,Encore - 649,27-May-2023,10000.0,L1V-4M1,43.830198,-79.122623
METRO #854- DERRY & 10TH LINE,3221 DERRY RD W L5N-7L7 MISSISSAUGA,Encore - Lotto Max,21-Feb-2023,10000.0,L5N-7L7,43.583215,-79.779055
MICHAEL'S CONVENIENCE,7080 WARDEN AVE L3R-5Y2 MARKHAM,POKER NIGHT,31-2341,10000.0,L3R-5Y2,43.822232,-79.325976
MILK'S PLUS,3312 DANFORTH AVE M1L-1C4 SCARBOROUGH,Daily Keno,01-Mar-2023,10000.0,M1L-1C4,43.693411,-79.27946
MISTER CONVENIENCE,102 ISLAND RD M1C-2P8 SCARBOROUGH,Lottario,04-Mar-2023,10000.0,M1C-2P8,43.798366,-79.138726
MOBIL @ NO FRILLS,15 PHOTOGRAPHY DR M6M-0A1 NORTH YORK,Lottario,01-Apr-2023,10000.0,M6M-0A1,43.686251,-79.482583
MR. GAS,4042 INNES RD K1C-1T1 ORLEANS,Lottario,04-Mar-2023,10000.0,K1C-1T1,45.455199,-75.505145
NECESSITIES,10A COUCHIE INDUSTRIAL RD P1B-8G5 NORTH BAY,BINGO MULTIP,31-3080,10000.0,P1B-8G5,46.333456,-79.522645
NEIGHBOUR'S FINE FOODS&FLOWERS&BALLOONS,4917 DUNDAS ST W M9A-1B6 ETOBICOKE,Pick 4,25-Jun-2023,10000.0,M9A-1B6,43.648482,-79.528533
NETHERBY VARIETY,7600 DURLIAT RD L3B-5N7 WELLAND,Encore - 649,03-May-2023,10000.0,L3B-5N7,42.96235675,-79.1207733
NEW GEN SUPERSTORE,4855 14TH AVE L3S-3L6 MARKHAM,Encore - 649,17-May-2023,10000.0,L3S-3L6,43.845429,-79.29357
NEWMARKET SMOKE SHOP,16635 YONGE ST L3X-1W3 NEWMARKET,BONUS MONEY,31-2355,10000.0,L3X-1W3,44.034296,-79.472019
NICKEL GATE CONVENIENCE,1 NICKEL GATE L4L-8L7 WOODBRIDGE,Daily Keno,01-Mar-2023,10000.0,L4L-8L7,43.788107,-79.62447
NORTHVIEW KFF CONVENIENCE,4949 BATHURST ST M2R-1Y1 NORTH YORK,Lottario,13-May-2023,10000.0,M2R-1Y1,43.774327,-79.442302
ONE STOP VARIETY,501 RITSON RD S L1H-5K3 OSHAWA,Encore - Lotto Max,30-Jun-2023,10000.0,L1H-5K3,43.88672,-78.84674
PARI'S MOUNT PLEASANT CONVENIENCE,60 COMMUTER DR L7A-0R3 BRAMPTON,Lotto 649,15-Jul-2023,10000.0,L7A-0R3,43.6757852,-79.821847
PARKWAY GROCERY,1469 PRINCESS ST K7M-3E9 KINGSTON,Encore - Lottario,18-Mar-2023,10000.0,K7M-3E9,44.252149,-76.533562
PETRO CANADA,10115 BRAMALEA RD L6R-1W6 BRAMPTON,Encore - 649,22-Mar-2023,10000.0,L6R-1W6,43.747167,-79.747117
PETRO CANADA,10561 HEART LAKE RD L6Z-0B6 BRAMPTON,Encore - 649,15-Mar-2023,10000.0,L6Z-0B6,43.736315,-79.779947
PETRO CANADA,1195 COUNTY 22 RD N0R-1C0 EMERYVILLE,Lottario,01-Apr-2023,10000.0,N0R-1C0,42.30116206,-82.784341
PETRO CANADA,12011 HURONTARIO ST L6Z-4P8 BRAMPTON,Daily Keno,09-May-2023,10000.0,L6Z-4P8,43.734362,-79.825155
PETRO CANADA,1270 BRIMLEY RD M1P-3G6 SCARBOROUGH,Daily Keno,06-Apr-2023,10000.0,M1P-3G6,43.769384,-79.262176
PETRO CANADA,1331 DUNDAS ST N5W-5P3 LONDON,THE BIG SPIN,31-3108,10000.0,N5W-5P3,42.996545,-81.203227
PETRO CANADA,1487 CENTRE ST L4J-3M7 THORNHILL,Daily Keno,10-Apr-2023,10000.0,L4J-3M7,43.805324,-79.473811
PETRO CANADA,1602 DUNDAS ST E L1N-2K8 WHITBY,Encore - Lotto Max,30-Jun-2023,10000.0,L1N-2K8,43.87119812,-78.9814644
PETRO CANADA,2250 VICTORIA PARK AVE M1R-1V9 NORTH YORK,Encore - Lotto Max,31-Mar-2023,10000.0,M1R-1V9,43.763212,-79.318154
PETRO CANADA,2265 DANFORTH AVE M4C-1K5 TORONTO,Pick 4,04-Apr-2023,10000.0,M4C-1K5,43.686551,-79.308001
PETRO CANADA,2295 DIVISION RD N8W-1Z7 WINDSOR,Encore - Lottario,18-Feb-2023,10000.0,N8W-1Z7,42.262642,-82.969639
PETRO CANADA,2329 STOUFFVILLE RD L0H-1G0 GORMLEY,Encore - Lotto Max,26-May-2023,10000.0,L0H-1G0,43.941623,-79.378426
PETRO CANADA,2863 DUFFERIN ST M6B-3S5 NORTH YORK,Daily Keno,21-Mar-2023,10000.0,M6B-3S5,43.707384,-79.45274
PETRO CANADA,3390 HWY 144 P0M-1L0 CHELMSFORD,Pick 4,20-Jun-2023,10000.0,P0M-1L0,46.58620279,-81.34227081
PETRO CANADA,471 MAIN ST S L6Y-1N6 BRAMPTON,Daily Keno,10-Feb-2023,10000.0,L6Y-1N6,43.668966,-79.738123
PETRO CANADA,471 MAIN ST S L6Y-1N6 BRAMPTON,Daily Keno,21-Mar-2023,10000.0,L6Y-1N6,43.668966,-79.738123
PETRO CANADA,471 MAIN ST S L6Y-1N6 BRAMPTON,Daily Keno,25-May-2023,10000.0,L6Y-1N6,43.668966,-79.738123
PETRO CANADA,690 HUNT CLUB RD K1V-1C3 OTTAWA,Pick 4,25-Jun-2023,10000.0,K1V-1C3,45.343026,-75.669884
PETRO CANADA,695 LAWRENCE AVE W M6A-1B4 TORONTO,Pick 4,04-Feb-2023,10000.0,M6A-1B4,43.715293,-79.446775
PETRO CANADA,730 GLEN FORREST BLVD N2L-4K8 WATERLOO,Daily Keno,15-Apr-2023,10000.0,N2L-4K8,43.493746,-80.548367
PETRO CANADA,900 PROGRESS AVE M1H-2Z9 SCARBOROUGH,Daily Keno,30-Apr-2023,10000.0,M1H-2Z9,43.782143,-79.234824
PETRO CANADA,901 SHEPPARD AVE W M3H-2T7 NORTH YORK,Encore - Pick 4,12-May-2023,10000.0,M3H-2T7,43.751156,-79.45706
PETRO CANADA,9550 YONGE ST L4C-1V6 RICHMOND HILL,Lottario,29-Apr-2023,10000.0,L4C-1V6,43.860481,-79.435341
PETRO CANADA,9981 CHINGUACOUSY RD L6X-0E8 BRAMPTON,Daily Keno,20-Jun-2023,10000.0,L6X-0E8,43.686412,-79.807589
PETRO- CANADA,5 ACE DR L6R-3Y2 BRAMPTON,Encore - 649,15-Apr-2023,10000.0,L6R-3Y2,43.76006251,-79.7942819
PETRO-CANADA,235 STEELES AVE E L9T-1Y2 MILTON,Encore - 649,27-May-2023,10000.0,L9T-1Y2,43.522173,-79.893966
PETRO-CANADA,235 STEELES AVE E L9T-1Y2 MILTON,Lottario,25-Mar-2023,10000.0,L9T-1Y2,43.522173,-79.893966
PICK QUICK SMOKE & VARIETY,4451 KINGSTON RD M1E-2N7 SCARBOROUGH,Daily Keno,08-Feb-2023,10000.0,M1E-2N7,43.76919028,-79.18800348
PIONEER GAS BAR,6802 COUNTY RD 10 L9R-1V2 ALLISTON,Lottario,24-Jun-2023,10000.0,L9R-1V2,44.242761,-79.851221
PIONEER ON THE RUN,1769 DUNDAS ST N5W-3E6 LONDON,Lottario,01-Jul-2023,10000.0,N5W-3E6,43.002377,-81.182964
PIONEER SNACK EXPRESS,248 THE QUEENSWAY  S L4P-2B1 KESWICK,Encore - Lotto Max,14-Jul-2023,10000.0,L4P-2B1,44.227399,-79.464924
PIONEER SNACK EXPRESS,8006 WELLINGTON 109 RD N0G-1A0 ARTHUR,Encore - 649,11-Mar-2023,10000.0,N0G-1A0,43.828113,-80.530512
PIONEER SNACK EXPRESS #221,3124 JEFFERSON BLVD N8T-3E8 WINDSOR,Encore - 649,29-Mar-2023,10000.0,N8T-3E8,42.295678,-82.941979
PIONEER SNOWBALL CORNERS GENERAL STORE,1494 WELLINGTON ST W L7B-1K5 KING CITY,Lottario,29-Apr-2023,10000.0,L7B-1K5,43.989526,-79.517405
PLAZA 100 TUCK SHOP,100 WELLESLEY ST E M4Y-1H5 TORONTO,Encore - Pick 4,30-Mar-2023,10000.0,M4Y-1H5,43.666544,-79.379187
RABBA #189,85 VICTORIA ST M5C-0A6 TORONTO,Daily Keno,30-Apr-2023,10000.0,M5C-0A6,43.651781,-79.377357
RABBA JARVIS,256 JARVIS ST M5B-2J4 TORONTO,WHEEL OF FORTUNE LOTTO,28-Feb-2023,10000.0,M5B-2J4,43.659384,-79.375678
RABBA QUEEN'S QUAY,252 QUEENS QUAY W M5J-1B5 TORONTO,Encore - Lotto Max,12-May-2023,10000.0,M5J-1B5,43.639384,-79.385369
RALPH & SONS DINER,3420 CARLING AVE K2H-5B1 NEPEAN,BINGO DBLR,31-2315,10000.0,K2H-5B1,45.352021,-75.835599
RALPH'S SERVICE CENTRE,236 MAIN ST N0G-1B0 ATWOOD,Lottario,15-Apr-2023,10000.0,N0G-1B0,43.666002,-81.02084
RAPID WAY,437 THOROLD RD L3C-3W4 WELLAND,Daily Keno,15-May-2023,10000.0,L3C-3W4,43.003395,-79.277097
RCS #2823 - STRATHROY,626 VICTORIA ST N7G-3C1 STRATHROY,Encore - Lotto Max,14-Jul-2023,10000.0,N7G-3C1,42.967129,-81.633897
RCS #512 - WASAGA BEACH,25 45TH ST S L9Z-1A7 WASAGA BEACH,Encore - Lotto Max,16-May-2023,10000.0,L9Z-1A7,44.473084,-80.073807
REOGATE CONVENIENCE,295 EGLINTON AVE E L4Z-3K6 MISSISSAUGA,Pick 4,23-Apr-2023,10000.0,L4Z-3K6,43.61376,-79.646106
REXALL #1504 - KING & ROSEHILL,438 KING ST W L1J-2K9 OSHAWA,Encore - Ontario 49,10-Jun-2023,10000.0,L1J-2K9,43.89438,-78.880373
REXALL #2100 - DERRY AND 10TH,3221 DERRY RD W L5N-7L7 MISSISSAUGA,Encore - 649,04-Feb-2023,10000.0,L5N-7L7,43.583215,-79.779055
REXALL #398 - MERIVALE & MEADOWLANDS,1595 MERIVALE RD K2G-3J4 NEPEAN,Encore - Lotto Max,09-May-2023,10000.0,K2G-3J4,45.352779,-75.732786
REXALL #6901 - WOODSTOCK,379 SPRINGBANK AVE N4T-1R3 WOODSTOCK,Encore - 649,31-May-2023,10000.0,N4T-1R3,43.14623,-80.737655
REXALL #6947 - ARNPRIOR,22 BASKIN DR E K7S-0E2 ARNPRIOR,Encore - Lotto Max,30-May-2023,10000.0,K7S-0E2,45.424014,-76.366881
ROCKWOOD LOTTO CENTRE,4141 DIXIE RD L4W-1V5 MISSISSAUGA,Daily Keno,29-May-2023,10000.0,L4W-1V5,43.62564,-79.604682
ROME'S YIG,44 GREAT NORTHERN RD P6B-4Y5 SAULT STE. MARI,Encore - Pick 3,21-Jun-2023,10000.0,P6B-4Y5,46.524037,-84.317174
ROYAL YORK SMOKE SHOP,1500 ROYAL YORK RD M9P-3B6 ETOBICOKE,Lottario,18-Mar-2023,10000.0,M9P-3B6,43.691965,-79.532159
SAM'S FOOD STORE,620 VAUGHAN RD M6C-2R5 YORK,Pick 4,13-Apr-2023,10000.0,M6C-2R5,43.69209,-79.440302
SAM'S MILK & VARIETY MART,462 BIRCHMOUNT RD M1K-1N8 SCARBOROUGH,Encore - 649,29-Apr-2023,10000.0,M1K-1N8,43.707187,-79.269776
SDM #1173 - GEORGIAN MALL,509 BAYFIELD ST L4M-4Z8 BARRIE,Lottario,04-Mar-2023,10000.0,L4M-4Z8,44.413368,-79.708194
SDM #1204 - HERITAGE HILL PLAZA,270 MUD ST W L8J-3Z6 STONEY CREEK,Encore - Lotto Max,10-Feb-2023,10000.0,L8J-3Z6,43.196715,-79.793145
SDM #1285 - CARLETON PLACE,315 MCNEELY AVE K7C-0A1 CARLETON PLACE,Encore - Lotto Max,31-Mar-2023,10000.0,K7C-0A1,45.14378,-76.130076
SDM #1306 - ARNPRIOR,55 ELGIN ST W K7S-1N6 ARNPRIOR,Lottario,20-May-2023,10000.0,K7S-1N6,45.433921,-76.355036
SDM #651 - BARRIE S.C.,165 WELLINGTON ST W L4N-1L7 BARRIE,Lottario,20-May-2023,10000.0,L4N-1L7,44.386297,-79.705382
SDM #795 - ROSE CITY PLAZA,825 ONTARIO RD L3B-5V6 WELLAND,Encore - 649,15-Feb-2023,10000.0,L3B-5V6,42.974935,-79.240125
SDM #936 - PAPE & COSBURN,1012 PAPE AVE M4K-3V9 EAST YORK,Daily Keno,17-Jun-2023,10000.0,M4K-3V9,43.6887,-79.3489
SDM #936 - PAPE & COSBURN,1012 PAPE AVE M4K-3V9 EAST YORK,Pick 4,06-Mar-2023,10000.0,M4K-3V9,43.6887,-79.3489
SDM #995 - CHARLOTTE & ALYMER,250 CHARLOTTE ST K9J-2V1 PETERBOROUGH,Encore - Lotto Max,12-May-2023,10000.0,K9J-2V1,44.303507,-78.32391
SHELBURNE FOODLAND,824 OJIBWAY RD L9V-3X9 SHELBURNE,Encore - Lotto Max,14-Jul-2023,10000.0,L9V-3X9,44.084392,-80.186826
SHELL,3330 KEELE ST M3J-1L5 NORTH YORK,Daily Keno,13-Jun-2023,10000.0,M3J-1L5,43.745144,-79.487132
SHELL,3550 QUEEN ST E L6P-3L2 BRAMPTON,Encore - 649,08-Feb-2023,10000.0,L6P-3L2,43.753954,-79.684552
SHELL,4926 BATHURST ST M2R-1X5 NORTH YORK,Pick 4,13-Mar-2023,10000.0,M2R-1X5,43.773327,-79.443463
SHELL GAS BAR,1974 AVENUE RD M5M-4A1 NORTH YORK,Lottario,08-Jul-2023,10000.0,M5M-4A1,43.73465,-79.420115
SHELL REGENT,1329 REGENT ST P3E-3Z1 SUDBURY,CROSSWORD,31-3235,10000.0,P3E-3Z1,46.462862,-81.010022
SHELL SELECT,408 HWY 7  E L4B-1A7 RICHMOND HILL,Pick 4,11-Mar-2023,10000.0,L4B-1A7,43.842668,-79.392569
SHELL SELECT,6731 KINGSTON RD M1B-1G9 SCARBOROUGH,Encore - 649,05-Apr-2023,10000.0,M1B-1G9,43.796945,-79.148583
SHELL SHOP,1294 6 HWY N L8N-2Z7 HAMILTON,Lotto 649,08-Jul-2023,10000.0,L8N-2Z7,43.31413735,-79.9202066
SILVERCITY FOOD MARKET,289 QUEEN MARY ST K1K-1X1 OTTAWA,Encore - Lotto Max,21-Apr-2023,10000.0,K1K-1X1,45.425341,-75.65305
SIMPLY GAS,136 EAST AVE P7A-8A4 THUNDER BAY,WHEEL OF FORTUNE LOTTO,09-Apr-2023,10000.0,P7A-8A4,42.251947,-84.19949
SMOKE & VARIETY,5 HILLCROFT DR L3S-1R6 MARKHAM,Encore - 649,15-Apr-2023,10000.0,L3S-1R6,43.830512,-79.279929
SMOKERS CORNER,1355 KINGSTON RD L1V-1B8 PICKERING,Lotto 649,01-Jul-2023,10000.0,L1V-1B8,43.835675,-79.086226
SOBEYS #4743 - BLOOR & ISLINGTON,3300 BLOOR ST W M8X-2X2 ETOBICOKE,Encore - Lotto Max,16-May-2023,10000.0,M8X-2X2,43.645494,-79.522014
SP&G,82 PENINSULA ROAD P0T-2E0 MARATHON,Encore - 649,06-May-2023,10000.0,P0T-2E0,48.726453,-86.376682
ST CLEMENTS FOOD TOWN,3650 LOBSINGER LINE N0B-2M0 ST CLEMENTS,Encore - Lotto Max,16-Jun-2023,10000.0,N0B-2M0,43.522921,-80.65491
ST. JAMESTOWN GIFT & VARIETY,240 WELLESLEY ST E M4X-1G5 TORONTO,Daily Keno,03-Jun-2023,10000.0,M4X-1G5,43.668211,-79.371773
STARSKY FINE FOODS MISSISSAUGA INC.,2040 DUNDAS ST E L4X-2X8 MISSISSAUGA,Encore - Ontario 49,18-Feb-2023,10000.0,L4X-2X8,43.622456,-79.568341
STEVEN'S YOUR INDEPENDENT GROCER,270 WELLINGTON ST P1L-1B9 BRACEBRIDGE,Encore - Daily Keno,15-Jul-2023,10000.0,P1L-1B9,45.042181,-79.324271
STRATFORD VARIETY,542 DOWNIE ST N5A-1Y2 STRATFORD,Daily Keno,19-Apr-2023,10000.0,N5A-1Y2,43.360418,-80.976916
SUE GAR VARIETY,5518 LAWRENCE AVE E M1C-3B2 SCARBOROUGH,Pick 4,16-May-2023,10000.0,M1C-3B2,43.779994,-79.13845
T & K VARIETY,1385 WESTON RD M6M-4S1 YORK,Pick 4,30-Mar-2023,10000.0,M6M-4S1,43.6913221,-79.5005624
T. DOT VARIETY STORE,4 MACDONELL AVE M6R-2A2 TORONTO,Encore - 649,15-Jul-2023,10000.0,M6R-2A2,43.6405122,-79.4381116
TELLY'S VARIETY,775 COLBORNE ST N3S-3S3 BRANTFORD,Lotto 649,08-Jul-2023,10000.0,N3S-3S3,43.143443,-80.226983
THE BARGAIN SHOP #53060,360 SCOTT ST P9A-1G9 FORT FRANCES,Encore - 649,22-Apr-2023,10000.0,P9A-1G9,48.610137,-93.393892
THE CORNER STORE,475 WESTNEY RD N L1T-3H4 AJAX,Pick 4,14-Jul-2023,10000.0,L1T-3H4,43.868079,-79.037984
THE TICKET SHOP,45 OVERLEA BLVD M4H-1C3 TORONTO,Encore - Lotto Max,06-Jun-2023,10000.0,M4H-1C3,43.705726,-79.346048
THE TICKET SHOP,6464 YONGE ST M2M-3X4 NORTH YORK,Pick 4,09-Jul-2023,10000.0,M2M-3X4,43.795849,-79.422372
THE TICKET SHOP,6464 YONGE ST M2M-3X4 NORTH YORK,Pick 4,26-Apr-2023,10000.0,M2M-3X4,43.795849,-79.422372
THE VILLAGE GENERAL STORE,743 FOURTH AVE L0K-1R0 PORT MCNICOLL,Pick 4,15-Mar-2023,10000.0,L0K-1R0,44.74730247,-79.80842192
TOTTENHAM MILK AND  VARIETY,1 QUEEN ST S L0G-1W0 TOTTENHAM,Encore - Lotto Max,28-Apr-2023,10000.0,L0G-1W0,44.022359,-79.805451
TOWN & COUNTRY MARKET,4033 HURONTARIO ST L4Z-0B8 MISSISSAUGA,Pick 4,23-Apr-2023,10000.0,L4Z-0B8,43.5946876,-79.6355814
UNI MARKET + CONVENIENCE,573 MAPLE AVE L7S-2E8 BURLINGTON,POWER UP,31-2368,10000.0,L7S-2E8,43.322306,-79.807682
VARIETY & MORE,336 YONGE ST L4N-4C8 BARRIE,Daily Keno,15-Feb-2023,10000.0,L4N-4C8,44.368943,-79.667458
VB NEIGHBOURHOOD VARIETY,155 MORNINGSIDE AVE M1E-3C8 SCARBOROUGH,Daily Keno,30-Apr-2023,10000.0,M1E-3C8,43.762431,-79.18314
VICKY'S CONVENIENCE,205 MARYCROFT AVE L4L-5X8 WOODBRIDGE,Daily Keno,08-Apr-2023,10000.0,L4L-5X8,43.784545,-79.565038
VICTORIA CONVENIENCE,113 VICTORIA AVE K8N-2A7 BELLEVILLE,Encore - 649,01-Jul-2023,10000.0,K8N-2A7,44.167953,-77.378171
VINCE'S MARKET UXBRIDGE,234 TORONTO ST S L9P-0C4 UXBRIDGE,Lottario,10-Jun-2023,10000.0,L9P-0C4,44.096902,-79.129922
WARDEN CONVENIENCE,2537 WARDEN AVE M1W-2H5 SCARBOROUGH,Daily Keno,30-Jun-2023,10000.0,M1W-2H5,43.79131944,-79.3134286
WESTDALE LOTTERY SERVICES,1151 DUNDAS ST W L5C-1C6 MISSISSAUGA,Daily Keno,26-Mar-2023,10000.0,L5C-1C6,43.557597,-79.645748
WILSON MYSTOP CONVENIENCE,1900 WILSON AVE M9M-1A8 NORTH YORK,Lotto 649,22-Jul-2023,10000.0,M9M-1A8,43.717021,-79.527248
WILSON MYSTOP CONVENIENCE,1900 WILSON AVE M9M-1A8 NORTH YORK,Pick 4,26-Mar-2023,10000.0,M9M-1A8,43.717021,-79.527248
ZEHRS #528 - CONESTOGA,555 DAVENPORT RD N2L-6L2 WATERLOO,CASH IN,31-2367,10000.0,N2L-6L2,43.497419,-80.525304
ZEHRS #560 - LAURENTIAN P.C,750 OTTAWA ST S N2E-1B6 KITCHENER,Encore - 649,18-Mar-2023,10000.0,N2E-1B6,43.423761,-80.487539
